loop_index,last_step_ns,imu_time_ns,bmp_time_ns,epoch_time_ns,v_batt,alt_bmp_raw,bmp_temp,gyro_roll,gyro_pitch,gyro_yaw,accel_X,accel_Y,accel_Z,mag_X, mag_Y, mag_Z,roll,pitch,yaw,rollDot,pitchDot,yawDot,X,Y,Z,Xdot,Ydot,Zdot,Zddot,xbee_time,xbee_time_received_ns,xbee_x,xbee_y,xbee_z,xbee_qw,xbee_qx,xbee_qy,xbee_qz,xbee_roll,xbee_pitch,xbee_yaw,gps_lat,gps_lon,gps_gpsAlt,gps_ned_x,gps_ned_y,gps_ned_z,gps_spd,gps_fix,gps_sat,gps_headingNc,gps_cog,gps_gpsVsi,gps_hdop,gps_vdop,gps_year,gps_month,gps_day,gps_hour,gps_minute,gps_second,gps_time_received_ns,X_thrt,Y_thrt,Z_thrt,roll_thrt,pitch_thrt,yaw_thrt,sp_roll_dot,sp_pitch_dot,sp_yaw_dot,sp_roll_dot_ff,sp_pitch_dot_ff,sp_yaw_dot_ff,sp_roll,sp_pitch,sp_yaw,sp_roll_ff,sp_pitch_ff,sp_X,sp_Y,sp_Z,sp_Xdot,sp_Ydot,sp_Zdot,sp_Xdot_ff,sp_Ydot_ff,sp_Zdot_ff,sp_Xddot,sp_Yddot,sp_Zddot,u_roll,u_pitch,u_yaw,u_X,u_Y,u_Z,mot_1,mot_2,mot_3,mot_4,dsm_con,flight_mode,tIMU,tIMU_END,tSM,tXBEE,tGPS,tPNI,tNAV,tGUI,tCTR,tLOG,tNTP
1,1642568912072464608,1642568912069258191,1642568912069258191,1642568912072470441,16.8000,367.7145,42.5500,-0.0277,-0.0096,0.0692,0.2678,-0.0598,-10.5101,17.9241,65.7014,43.0741,-0.0756,-0.0156,0.2830,-0.0271,-0.0099,0.0662,0.0000,0.0000,0.0000,0.0000,0.0000,0.0000,0.0000,0,0,0.0000,0.0000,0.0000,0.0000,0.0000,0.0000,0.0000,0.0000,0.0000,0.0000,0.00000000,0.00000000,0.000,0.000,0.000,0.000,0.000,0,0,0.000,0.000,0.000,0.000,0.000,0,0,0,0,0,0,0,0.0000,0.0000,-0.0500,0.4415,0.0000,0.0000,0.6050,0.0000,0.0000,0.0000,0.0000,0.0000,0.0000,0.0000,0.2830,0.0000,0.0000,0.0000,0.0000,0.0000,0.0000,0.0000,0.0000,0.0000,0.0000,0.0000,0.0000,0.0000,0.0000,0.1000,0.0000,0.0000,0.0000,0.0000,-0.0500,0.0000,0.0000,0.1621,0.1621,1,3,1642568912069260191,1642568912064629691,1642568912069293025,1642568912069280483,1642568912069305733,1642568912069307275,1642568912069539691,1642568912072412566,1642568912072466400,1642568912064628441,0
2,1642568912074774066,1642568912074367150,1642568912074367150,1642568912074778025,16.8000,367.7145,42.5500,-0.0266,-0.0085,0.0703,0.2439,-0.0311,-10.3933,17.9241,65.7014,43.0741,-0.0757,-0.0155,0.2833,-0.0270,-0.0094,0.0676,0.0000,0.0000,0.0000,0.0000,0.0000,0.0000,0.0000,0,0,0.0000,0.0000,0.0000,0.0000,0.0000,0.0000,0.0000,0.0000,0.0000,0.0000,0.00000000,0.00000000,0.000,0.000,0.000,0.000,0.000,0,0,0.000,0.000,0.000,0.000,0.000,0,0,0,0,0,0,0,0.0000,0.0000,-0.0500,0.3228,0.0000,0.0000,0.6054,0.0000,0.0000,0.0000,0.0000,0.0000,0.0000,0.0000,0.2833,0.0000,0.0000,0.0000,0.0000,0.0000,0.0000,0.0000,0.0000,0.0000,0.0000,0.0000,0.0000,0.0000,0.0000,0.1000,0.0000,0.0000,0.0000,0.0000,-0.0500,0.0000,0.0000,0.1621,0.1621,1,3,1642568912074369525,1642568912072485400,1642568912074419816,1642568912074402858,1642568912074435025,1642568912074436566,1642568912074738316,1642568912074741441,1642568912074775650,1642568912072482983,0
3,1642568912079601358,1642568912079255566,1642568912079255566,1642568912079604566,16.8000,367.7145,42.5500,-0.0298,-0.0085,0.0735,0.2224,-0.0742,-10.4290,18.2791,64.9892,43.7605,-0.0757,-0.0155,0.2837,-0.0279,-0.0091,0.0695,0.0000,0.0000,0.0000,0.0000,0.0000,0.0000,0.0000,0,0,0.0000,0.0000,0.0000,0.0000,0.0000,0.0000,0.0000,0.0000,0.0000,0.0000,0.00000000,0.00000000,0.000,0.000,0.000,0.000,0.000,0,0,0.000,0.000,0.000,0.000,0.000,0,0,0,0,0,0,0,0.0000,0.0000,-0.0500,0.2424,0.0000,0.0000,0.6059,0.0000,0.0000,0.0000,0.0000,0.0000,0.0000,0.0000,0.2837,0.0000,0.0000,0.0000,0.0000,0.0000,0.0000,0.0000,0.0000,0.0000,0.0000,0.0000,0.0000,0.0000,0.0000,0.1000,0.0000,0.0000,0.0000,0.0000,-0.0500,0.0000,0.0000,0.1621,0.1621,1,3,1642568912079258316,1642568912074787441,1642568912079297316,1642568912079283400,1642568912079310775,1642568912079312108,1642568912079569983,1642568912079572691,1642568912079602941,1642568912074785650,0
4,1642568912084627566,1642568912084284191,1642568912084284191,1642568912084631566,16.8000,367.7145,42.5500,-0.0288,-0.0096,0.0746,0.2415,-0.0311,-10.3861,18.2791,64.9892,43.7605,-0.0758,-0.0155,0.2840,-0.0282,-0.0093,0.0712,0.0000,0.0000,0.0000,0.0000,0.0000,0.0000,0.0000,0,0,0.0000,0.0000,0.0000,0.0000,0.0000,0.0000,0.0000,0.0000,0.0000,0.0000,0.00000000,0.00000000,0.000,0.000,0.000,0.000,0.000,0,0,0.000,0.000,0.000,0.000,0.000,0,0,0,0,0,0,0,0.0000,0.0000,-0.0500,0.2038,0.0000,0.0000,0.6296,0.0000,0.0000,0.0000,0.0000,0.0000,0.0029,-0.0029,0.2840,0.0000,0.0000,0.0000,0.0000,0.0000,0.0000,0.0000,0.0000,0.0000,0.0000,0.0000,0.0000,0.0000,0.0000,0.1000,0.0000,0.0000,0.0000,0.0000,-0.0500,0.0000,0.0000,0.1621,0.1621,1,3,1642568912084286941,1642568912079611650,1642568912084320733,1642568912084308316,1642568912084334066,1642568912084335441,1642568912084592025,1642568912084594983,1642568912084629358,1642568912079610358,0
5,1642568912089570566,1642568912089259066,1642568912089259066,1642568912089573483,16.8000,367.7145,42.5500,-0.0288,-0.0096,0.0778,0.2391,-0.0335,-10.3813,18.2791,64.9892,43.7605,-0.0758,-0.0155,0.2844,-0.0284,-0.0094,0.0734,0.0000,0.0000,0.0000,0.0000,0.0000,0.0000,0.0000,0,0,0.0000,0.0000,0.0000,0.0000,0.0000,0.0000,0.0000,0.0000,0.0000,0.0000,0.00000000,0.00000000,0.000,0.000,0.000,0.000,0.000,0,0,0.000,0.000,0.000,0.000,0.000,0,0,0,0,0,0,0,0.0000,0.0000,-0.0500,0.1610,0.0000,0.0000,0.6300,0.0000,0.0000,0.0000,0.0000,0.0000,0.0029,-0.0029,0.2844,0.0000,0.0000,0.0000,0.0000,0.0000,0.0000,0.0000,0.0000,0.0000,0.0000,0.0000,0.0000,0.0000,0.0000,0.1000,0.0000,0.0000,0.0000,0.0000,-0.0500,0.0000,0.0000,0.1621,0.1621,1,3,1642568912089261316,1642568912084640275,1642568912089294691,1642568912089282691,1642568912089306066,1642568912089307358,1642568912089542525,1642568912089545275,1642568912089571900,1642568912084638775,0
6,1642568912094558066,1642568912094243275,1642568912094243275,1642568912094561400,16.8000,367.7145,42.5500,-0.0277,-0.0085,0.0788,0.2128,-0.0311,-10.4052,18.2791,64.9892,43.7605,-0.0759,-0.0154,0.2848,-0.0282,-0.0091,0.0752,0.0000,0.0000,0.0000,0.0000,0.0000,0.0000,0.0000,0,0,0.0000,0.0000,0.0000,0.0000,0.0000,0.0000,0.0000,0.0000,0.0000,0.0000,0.00000000,0.00000000,0.000,0.000,0.000,0.000,0.000,0,0,0.000,0.000,0.000,0.000,0.000,0,0,0,0,0,0,0,0.0000,0.0000,-0.0500,0.1314,0.0000,0.0000,0.6305,0.0000,0.0000,0.0000,0.0000,0.0000,0.0029,-0.0029,0.2848,0.0000,0.0000,0.0000,0.0000,0.0000,0.0000,0.0000,0.0000,0.0000,0.0000,0.0000,0.0000,0.0000,0.0000,0.1000,0.0000,0.0000,0.0000,0.0000,-0.0500,0.0000,0.0000,0.1621,0.1621,1,3,1642568912094246233,1642568912089640316,1642568912094279108,1642568912094267233,1642568912094291691,1642568912094293066,1642568912094528900,1642568912094531233,1642568912094559400,1642568912089638566,0
7,1642568912099590108,1642568912099259483,1642568912099259483,1642568912099593316,16.8000,367.7145,42.5500,-0.0277,-0.0107,0.0778,0.2152,-0.0407,-10.4958,17.9241,63.9208,43.0741,-0.0760,-0.0154,0.2852,-0.0280,-0.0096,0.0761,0.0000,0.0000,0.0000,0.0000,0.0000,0.0000,0.0000,0,0,0.0000,0.0000,0.0000,0.0000,0.0000,0.0000,0.0000,0.0000,0.0000,0.0000,0.00000000,0.00000000,0.000,0.000,0.000,0.000,0.000,0,0,0.000,0.000,0.000,0.000,0.000,0,0,0,0,0,0,0,0.0000,0.0000,-0.0500,0.1112,0.0000,0.0000,0.6309,0.0000,0.0000,0.0000,0.0000,0.0000,0.0029,-0.0029,0.2852,0.0000,0.0000,0.0000,0.0000,0.0000,0.0000,0.0000,0.0000,0.0000,0.0000,0.0000,0.0000,0.0000,0.0000,0.1000,0.0000,0.0000,0.0000,0.0000,-0.0500,0.0000,0.0000,0.1621,0.1621,1,3,1642568912099262150,1642568912094567983,1642568912099298900,1642568912099285316,1642568912099311608,1642568912099313191,1642568912099557066,1642568912099560441,1642568912099591441,1642568912094566483,0
8,1642568912104879941,1642568912104521525,1642568912104521525,1642568912104883941,16.8000,367.7145,42.5500,-0.0277,-0.0096,0.0788,0.2128,-0.0814,-10.4481,17.9241,63.9208,43.0741,-0.0760,-0.0154,0.2855,-0.0279,-0.0096,0.0770,0.0000,0.0000,0.0000,0.0000,0.0000,0.0000,0.0000,0,0,0.0000,0.0000,0.0000,0.0000,0.0000,0.0000,0.0000,0.0000,0.0000,0.0000,0.00000000,0.00000000,0.000,0.000,0.000,0.000,0.000,0,0,0.000,0.000,0.000,0.000,0.000,0,0,0,0,0,0,0,0.0000,0.0000,-0.0500,0.0804,0.0000,0.0000,0.6081,0.0000,0.0000,0.0000,0.0000,0.0000,0.0000,0.0000,0.2855,0.0000,0.0000,0.0000,0.0000,0.0000,0.0000,0.0000,0.0000,0.0000,0.0000,0.0000,0.0000,0.0000,0.0000,0.0804,0.0000,0.0000,0.0000,0.0000,-0.0500,0.0202,0.0202,0.1466,0.1466,1,3,1642568912104523733,1642568912099600441,1642568912104562358,1642568912104547733,1642568912104576191,1642568912104577775,1642568912104842233,1642568912104846025,1642568912104881316,1642568912099599150,0
9,1642568912109714066,1642568912109321608,1642568912109321608,1642568912109718275,16.8000,367.7145,42.5500,-0.0277,-0.0117,0.0831,0.2319,-0.0550,-10.3933,17.9241,63.9208,43.0741,-0.0761,-0.0154,0.2859,-0.0278,-0.0103,0.0790,0.0000,0.0000,0.0000,0.0000,0.0000,0.0000,0.0000,0,0,0.0000,0.0000,0.0000,0.0000,0.0000,0.0000,0.0000,0.0000,0.0000,0.0000,0.00000000,0.00000000,0.000,0.000,0.000,0.000,0.000,0,0,0.000,0.000,0.000,0.000,0.000,0,0,0,0,0,0,0,0.0000,0.0000,-0.0500,0.0756,0.0000,0.0000,0.6085,0.0000,0.0000,0.0000,0.0000,0.0000,0.0000,0.0000,0.2859,0.0000,0.0000,0.0000,0.0000,0.0000,0.0000,0.0000,0.0000,0.0000,0.0000,0.0000,0.0000,0.0000,0.0000,0.0756,0.0000,0.0000,0.0000,0.0000,-0.0500,0.0253,0.0253,0.1427,0.1427,1,3,1642568912109325275,1642568912104892941,1642568912109371566,1642568912109357316,1642568912109385691,1642568912109387441,1642568912109674733,1642568912109677775,1642568912109715441,1642568912104891441,0
10,1642568912114597066,1642568912114247566,1642568912114247566,1642568912114600441,16.8000,367.7290,42.5500,-0.0298,-0.0096,0.0852,0.2248,-0.0694,-10.3527,17.9241,63.9208,43.0741,-0.0761,-0.0153,0.2863,-0.0285,-0.0101,0.0811,0.0000,0.0000,0.0000,0.0000,0.0000,0.0000,0.0000,0,0,0.0000,0.0000,0.0000,0.0000,0.0000,0.0000,0.0000,0.0000,0.0000,0.0000,0.00000000,0.00000000,0.000,0.000,0.000,0.000,0.000,0,0,0.000,0.000,0.000,0.000,0.000,0,0,0,0,0,0,0,0.0000,0.0000,-0.0500,0.0729,0.0000,0.0000,0.6090,0.0000,0.0000,0.0000,0.0000,0.0000,0.0000,0.0000,0.2863,0.0000,0.0000,0.0000,0.0000,0.0000,0.0000,0.0000,0.0000,0.0000,0.0000,0.0000,0.0000,0.0000,0.0000,0.0729,0.0000,0.0000,0.0000,0.0000,-0.0500,0.0280,0.0280,0.1406,0.1406,1,3,1642568912114249525,1642568912110183525,1642568912114290525,1642568912114276233,1642568912114304025,1642568912114305733,1642568912114563316,1642568912114566941,1642568912114598441,1642568912109788066,0
11,1642568912119565733,1642568912119241400,1642568912119241400,1642568912119568733,16.8000,367.7290,42.5500,-0.0288,-0.0085,0.0820,0.2080,-0.0694,-10.4147,18.9889,63.5647,41.7012,-0.0762,-0.0153,0.2868,-0.0286,-0.0096,0.0814,0.0000,0.0000,0.0000,0.0000,0.0000,0.0000,0.0000,0,0,0.0000,0.0000,0.0000,0.0000,0.0000,0.0000,0.0000,0.0000,0.0000,0.0000,0.00000000,0.00000000,0.000,0.000,0.000,0.000,0.000,0,0,0.000,0.000,0.000,0.000,0.000,0,0,0,0,0,0,0,0.0000,0.0000,-0.0500,0.0707,0.0000,0.0000,0.6094,0.0000,0.0000,0.0000,0.0000,0.0000,0.0000,0.0000,0.2868,0.0000,0.0000,0.0000,0.0000,0.0000,0.0000,0.0000,0.0000,0.0000,0.0000,0.0000,0.0000,0.0000,0.0000,0.0707,0.0000,0.0000,0.0000,0.0000,-0.0500,0.0303,0.0303,0.1388,0.1388,1,3,1642568912119243650,1642568912114608566,1642568912119276775,1642568912119264358,1642568912119288816,1642568912119290150,1642568912119535650,1642568912119538108,1642568912119567108,1642568912114607275,0
12,1642568912124531608,1642568912124219191,1642568912124219191,1642568912124534983,16.8000,367.7290,42.5500,-0.0298,-0.0107,0.0852,0.2391,-0.0694,-10.4767,18.9889,63.5647,41.7012,-0.0762,-0.0153,0.2872,-0.0290,-0.0099,0.0827,0.0000,0.0000,0.0000,0.0000,0.0000,0.0000,0.0000,0,0,0.0000,0.0000,0.0000,0.0000,0.0000,0.0000,0.0000,0.0000,0.0000,0.0000,0.00000000,0.00000000,0.000,0.000,0.000,0.000,0.000,0,0,0.000,0.000,0.000,0.000,0.000,0,0,0,0,0,0,0,0.0000,0.0000,-0.0500,0.0694,0.0000,0.0000,0.6099,0.0000,0.0000,0.0000,0.0000,0.0000,0.0000,0.0000,0.2872,0.0000,0.0000,0.0000,0.0000,0.0000,0.0000,0.0000,0.0000,0.0000,0.0000,0.0000,0.0000,0.0000,0.0000,0.0694,0.0000,0.0000,0.0000,0.0000,-0.0500,0.0316,0.0316,0.1378,0.1378,1,3,1642568912124221441,1642568912119576316,1642568912124252691,1642568912124240525,1642568912124264400,1642568912124265775,1642568912124503816,1642568912124506483,1642568912124532900,1642568912119575066,0
13,1642568912129606441,1642568912129268108,1642568912129268108,1642568912129609400,16.8000,367.7290,42.5500,-0.0298,-0.0085,0.0842,0.2224,-0.0479,-10.4314,18.9889,63.5647,41.7012,-0.0763,-0.0153,0.2876,-0.0293,-0.0095,0.0832,0.0000,0.0000,0.0000,0.0000,0.0000,0.0000,0.0000,0,0,0.0000,0.0000,0.0000,0.0000,0.0000,0.0000,0.0000,0.0000,0.0000,0.0000,0.00000000,0.00000000,0.000,0.000,0.000,0.000,0.000,0,0,0.000,0.000,0.000,0.000,0.000,0,0,0,0,0,0,0,0.0000,0.0000,-0.0500,0.0855,0.0000,0.0000,0.6337,0.0000,0.0000,0.0000,0.0000,0.0000,0.0029,-0.0029,0.2876,0.0000,0.0000,0.0000,0.0000,0.0000,0.0000,0.0000,0.0000,0.0000,0.0000,0.0000,0.0000,0.0000,0.0000,0.0855,0.0000,0.0000,0.0000,0.0000,-0.0500,0.0150,0.0150,0.1506,0.1506,1,3,1642568912129270858,1642568912124540108,1642568912129305733,1642568912129292275,1642568912129318775,1642568912129320566,1642568912129574816,1642568912129577566,1642568912129607816,1642568912124538858,0
14,1642568912134573858,1642568912134255358,1642568912134255358,1642568912134577233,16.8000,367.7290,42.5500,-0.0298,-0.0096,0.0874,0.2343,-0.0191,-10.4195,18.9889,63.5647,41.7012,-0.0764,-0.0152,0.2880,-0.0295,-0.0095,0.0846,0.0000,0.0000,0.0000,0.0000,0.0000,0.0000,0.0000,0,0,0.0000,0.0000,0.0000,0.0000,0.0000,0.0000,0.0000,0.0000,0.0000,0.0000,0.00000000,0.00000000,0.000,0.000,0.000,0.000,0.000,0,0,0.000,0.000,0.000,0.000,0.000,0,0,0,0,0,0,0,0.0000,0.0000,-0.0500,0.0803,0.0000,0.0000,0.6342,0.0000,0.0000,0.0000,0.0000,0.0000,0.0029,-0.0029,0.2880,0.0000,0.0000,0.0000,0.0000,0.0000,0.0000,0.0000,0.0000,0.0000,0.0000,0.0000,0.0000,0.0000,0.0000,0.0803,0.0000,0.0000,0.0000,0.0000,-0.0500,0.0204,0.0204,0.1464,0.1464,1,3,1642568912134257566,1642568912129667900,1642568912134292566,1642568912134279983,1642568912134304400,1642568912134305691,1642568912134543983,1642568912134547150,1642568912134575233,1642568912129666066,0
15,1642568912139575691,1642568912139241150,1642568912139241150,1642568912139579483,16.8000,367.7290,42.5500,-0.0288,-0.0075,0.0884,0.2535,-0.0503,-10.4100,18.2791,64.2770,42.7308,-0.0764,-0.0152,0.2884,-0.0292,-0.0088,0.0858,0.0000,0.0000,0.0000,0.0000,0.0000,0.0000,0.0000,0,0,0.0000,0.0000,0.0000,0.0000,0.0000,0.0000,0.0000,0.0000,0.0000,0.0000,0.00000000,0.00000000,0.000,0.000,0.000,0.000,0.000,0,0,0.000,0.000,0.000,0.000,0.000,0,0,0,0,0,0,0,0.0000,0.0000,-0.0500,0.0764,0.0000,0.0000,0.6347,0.0000,0.0000,0.0000,0.0000,0.0000,0.0029,-0.0029,0.2884,0.0000,0.0000,0.0000,0.0000,0.0000,0.0000,0.0000,0.0000,0.0000,0.0000,0.0000,0.0000,0.0000,0.0000,0.0764,0.0000,0.0000,0.0000,0.0000,-0.0500,0.0244,0.0244,0.1433,0.1433,1,3,1642568912139243400,1642568912134583608,1642568912139281941,1642568912139268733,1642568912139295025,1642568912139296566,1642568912139543900,1642568912139546566,1642568912139576983,1642568912134581858,0
16,1642568912144560233,1642568912144254775,1642568912144254775,1642568912144563150,16.8000,367.7290,42.5500,-0.0298,-0.0085,0.0895,0.2080,-0.0838,-10.4147,18.2791,64.2770,42.7308,-0.0765,-0.0152,0.2889,-0.0294,-0.0087,0.0871,0.0000,0.0000,0.0000,0.0000,0.0000,0.0000,0.0000,0,0,0.0000,0.0000,0.0000,0.0000,0.0000,0.0000,0.0000,0.0000,0.0000,0.0000,0.00000000,0.00000000,0.000,0.000,0.000,0.000,0.000,0,0,0.000,0.000,0.000,0.000,0.000,0,0,0,0,0,0,0,0.0000,0.0000,-0.0500,0.0741,0.0000,0.0000,0.6352,0.0000,0.0000,0.0000,0.0000,0.0000,0.0029,-0.0029,0.2889,0.0000,0.0000,0.0000,0.0000,0.0000,0.0000,0.0000,0.0000,0.0000,0.0000,0.0000,0.0000,0.0000,0.0000,0.0741,0.0000,0.0000,0.0000,0.0000,-0.0500,0.0268,0.0268,0.1415,0.1415,1,3,1642568912144257233,1642568912139587150,1642568912144288941,1642568912144276733,1642568912144300983,1642568912144302358,1642568912144532650,1642568912144534691,1642568912144561525,1642568912139585858,0
17,1642568912149602775,1642568912149273733,1642568912149273733,1642568912149605941,16.8000,367.7290,42.5500,-0.0298,-0.0085,0.0927,0.2128,-0.0431,-10.4195,18.2791,64.2770,42.7308,-0.0766,-0.0151,0.2893,-0.0296,-0.0087,0.0889,0.0000,0.0000,0.0000,0.0000,0.0000,0.0000,0.0000,0,0,0.0000,0.0000,0.0000,0.0000,0.0000,0.0000,0.0000,0.0000,0.0000,0.0000,0.00000000,0.00000000,0.000,0.000,0.000,0.000,0.000,0,0,0.000,0.000,0.000,0.000,0.000,0,0,0,0,0,0,0,0.0000,0.0000,-0.0500,0.0725,0.0000,0.0000,0.6357,0.0000,0.0000,0.0000,0.0000,0.0000,0.0029,0.0000,0.2893,0.0000,0.0000,0.0000,0.0000,0.0000,0.0000,0.0000,0.0000,0.0000,0.0000,0.0000,0.0000,0.0000,0.0000,0.0725,0.0000,0.0000,0.0000,0.0000,-0.0500,0.0284,0.0284,0.1403,0.1403,1,3,1642568912149276941,1642568912144569691,1642568912149311691,1642568912149299941,1642568912149323983,1642568912149325400,1642568912149571941,1642568912149574650,1642568912149604108,1642568912144568441,0
18,1642568912154567566,1642568912154257608,1642568912154257608,1642568912154570733,16.8000,367.7290,42.5500,-0.0298,-0.0075,0.0937,0.2128,-0.0574,-10.3956,18.2791,64.2770,42.7308,-0.0766,-0.0151,0.2898,-0.0296,-0.0083,0.0905,0.0000,0.0000,0.0000,0.0000,0.0000,0.0000,0.0000,0,0,0.0000,0.0000,0.0000,0.0000,0.0000,0.0000,0.0000,0.0000,0.0000,0.0000,0.00000000,0.00000000,0.000,0.000,0.000,0.000,0.000,0,0,0.000,0.000,0.000,0.000,0.000,0,0,0,0,0,0,0,0.0000,0.0000,-0.0500,0.0715,0.0000,0.0000,0.6362,0.0000,0.0000,0.0000,0.0000,0.0000,0.0029,0.0000,0.2898,0.0000,0.0000,0.0000,0.0000,0.0000,0.0000,0.0000,0.0000,0.0000,0.0000,0.0000,0.0000,0.0000,0.0000,0.0715,0.0000,0.0000,0.0000,0.0000,-0.0500,0.0295,0.0295,0.1394,0.1394,1,3,1642568912154259816,1642568912149663900,1642568912154292358,1642568912154280025,1642568912154304483,1642568912154305858,1642568912154539400,1642568912154541358,1642568912154568900,1642568912149661275,0
19,1642568912159545191,1642568912159231066,1642568912159231066,1642568912159548316,16.8000,367.7290,42.5500,-0.0309,-0.0107,0.0959,0.1985,-0.0742,-10.4171,19.5213,63.7428,44.6186,-0.0767,-0.0151,0.2902,-0.0301,-0.0091,0.0923,0.0000,0.0000,0.0000,0.0000,0.0000,0.0000,0.0000,0,0,0.0000,0.0000,0.0000,0.0000,0.0000,0.0000,0.0000,0.0000,0.0000,0.0000,0.00000000,0.00000000,0.000,0.000,0.000,0.000,0.000,0,0,0.000,0.000,0.000,0.000,0.000,0,0,0,0,0,0,0,0.0000,0.0000,-0.0500,0.0711,0.0000,0.0000,0.6367,0.0000,0.0000,0.0000,0.0000,0.0000,0.0029,0.0000,0.2902,0.0000,0.0000,0.0000,0.0000,0.0000,0.0000,0.0000,0.0000,0.0000,0.0000,0.0000,0.0000,0.0000,0.0000,0.0711,0.0000,0.0000,0.0000,0.0000,-0.0500,0.0300,0.0300,0.1391,0.1391,1,3,1642568912159233983,1642568912154577066,1642568912159266316,1642568912159253691,1642568912159278816,1642568912159280191,1642568912159515025,1642568912159517733,1642568912159546525,1642568912154575525,0
20,1642568912164810025,1642568912164404733,1642568912164404733,1642568912164815316,16.8000,367.7438,42.5500,-0.0298,-0.0107,0.0969,0.2224,-0.0407,-10.4648,19.5213,63.7428,44.6186,-0.0767,-0.0150,0.2907,-0.0300,-0.0096,0.0939,0.0000,0.0000,0.0000,0.0000,0.0000,0.0000,0.0000,0,0,0.0000,0.0000,0.0000,0.0000,0.0000,0.0000,0.0000,0.0000,0.0000,0.0000,0.00000000,0.00000000,0.000,0.000,0.000,0.000,0.000,0,0,0.000,0.000,0.000,0.000,0.000,0,0,0,0,0,0,0,0.0000,0.0000,-0.0500,0.0704,0.0000,0.0000,0.6372,0.0000,0.0000,0.0000,0.0000,0.0000,0.0029,0.0000,0.2907,0.0000,0.0000,0.0000,0.0000,0.0000,0.0000,0.0000,0.0000,0.0000,0.0000,0.0000,0.0000,0.0000,0.0000,0.0704,0.0000,0.0000,0.0000,0.0000,-0.0500,0.0306,0.0306,0.1386,0.1386,1,3,1642568912164407691,1642568912159909441,1642568912164455608,1642568912164439275,1642568912164470650,1642568912164471983,1642568912164767775,1642568912164772025,1642568912164811775,1642568912159552691,0
21,1642568912169745441,1642568912169386108,1642568912169386108,1642568912169748566,16.8000,367.7438,42.5500,-0.0298,-0.0107,0.0948,0.2487,-0.0694,-10.4672,19.5213,63.7428,44.6186,-0.0768,-0.0150,0.2912,-0.0299,-0.0099,0.0942,0.0000,0.0000,0.0000,0.0000,0.0000,0.0000,0.0000,0,0,0.0000,0.0000,0.0000,0.0000,0.0000,0.0000,0.0000,0.0000,0.0000,0.0000,0.00000000,0.00000000,0.000,0.000,0.000,0.000,0.000,0,0,0.000,0.000,0.000,0.000,0.000,0,0,0,0,0,0,0,0.0000,0.0000,-0.0500,0.0700,0.0000,0.0000,0.6377,0.0000,0.0000,0.0000,0.0000,0.0000,0.0029,0.0000,0.2912,0.0000,0.0000,0.0000,0.0000,0.0000,0.0000,0.0000,0.0000,0.0000,0.0000,0.0000,0.0000,0.0000,0.0000,0.0700,0.0000,0.0000,0.0000,0.0000,-0.0500,0.0310,0.0310,0.1383,0.1383,1,3,1642568912169388816,1642568912164827191,1642568912169425941,1642568912169411983,1642568912169439608,1642568912169441358,1642568912169710775,1642568912169715150,1642568912169746733,1642568912164825441,0
22,1642568912174636608,1642568912174323900,1642568912174323900,1642568912174639483,16.8000,367.7438,42.5500,-0.0309,-0.0085,0.0980,0.1913,-0.0574,-10.4386,19.5213,63.7428,44.6186,-0.0769,-0.0150,0.2917,-0.0303,-0.0095,0.0955,0.0000,0.0000,0.0000,0.0000,0.0000,0.0000,0.0000,0,0,0.0000,0.0000,0.0000,0.0000,0.0000,0.0000,0.0000,0.0000,0.0000,0.0000,0.00000000,0.00000000,0.000,0.000,0.000,0.000,0.000,0,0,0.000,0.000,0.000,0.000,0.000,0,0,0,0,0,0,0,0.0000,0.0000,-0.0500,0.0701,0.0000,0.0000,0.6383,0.0000,0.0000,0.0000,0.0000,0.0000,0.0029,0.0000,0.2917,0.0000,0.0000,0.0000,0.0000,0.0000,0.0000,0.0000,0.0000,0.0000,0.0000,0.0000,0.0000,0.0000,0.0000,0.0701,0.0000,0.0000,0.0000,0.0000,-0.0500,0.0309,0.0309,0.1383,0.1383,1,3,1642568912174326150,1642568912169757566,1642568912174360941,1642568912174348150,1642568912174373316,1642568912174374650,1642568912174608566,1642568912174610691,1642568912174637941,1642568912169756066,0
23,1642568912179604983,1642568912179260441,1642568912179260441,1642568912179608650,16.8000,367.7438,42.5500,-0.0266,-0.0075,0.1012,0.2104,-0.0263,-10.3980,21.6510,64.8111,43.5889,-0.0769,-0.0149,0.2922,-0.0290,-0.0088,0.0974,0.0000,0.0000,0.0000,0.0000,0.0000,0.0000,0.0000,0,0,0.0000,0.0000,0.0000,0.0000,0.0000,0.0000,0.0000,0.0000,0.0000,0.0000,0.00000000,0.00000000,0.000,0.000,0.000,0.000,0.000,0,0,0.000,0.000,0.000,0.000,0.000,0,0,0,0,0,0,0,0.0000,0.0000,-0.0500,0.0690,0.0000,0.0000,0.6386,0.0000,0.0000,0.0000,0.0000,0.0000,0.0029,0.0000,0.2922,0.0000,0.0000,0.0000,0.0000,0.0000,0.0000,0.0000,0.0000,0.0000,0.0000,0.0000,0.0000,0.0000,0.0000,0.0690,0.0000,0.0000,0.0000,0.0000,-0.0500,0.0321,0.0321,0.1374,0.1374,1,3,1642568912179263441,1642568912174703816,1642568912179301358,1642568912179286983,1642568912179314608,1642568912179315941,1642568912179570316,1642568912179573525,1642568912179606358,1642568912174701775,0
24,1642568912184581066,1642568912184265941,1642568912184265941,1642568912184584441,16.8000,367.7438,42.5500,-0.0309,-0.0096,0.1001,0.2272,-0.0263,-10.4123,21.6510,64.8111,43.5889,-0.0770,-0.0149,0.2927,-0.0297,-0.0091,0.0983,0.0000,0.0000,0.0000,0.0000,0.0000,0.0000,0.0000,0,0,0.0000,0.0000,0.0000,0.0000,0.0000,0.0000,0.0000,0.0000,0.0000,0.0000,0.00000000,0.00000000,0.000,0.000,0.000,0.000,0.000,0,0,0.000,0.000,0.000,0.000,0.000,0,0,0,0,0,0,0,0.0000,0.0000,-0.0500,0.0697,0.0000,0.0000,0.6392,0.0000,0.0000,0.0000,0.0000,0.0000,0.0029,0.0000,0.2927,0.0000,0.0000,0.0000,0.0000,0.0000,0.0000,0.0000,0.0000,0.0000,0.0000,0.0000,0.0000,0.0000,0.0000,0.0697,0.0000,0.0000,0.0000,0.0000,-0.0500,0.0314,0.0314,0.1380,0.1380,1,3,1642568912184268275,1642568912179616900,1642568912184299775,1642568912184287816,1642568912184310983,1642568912184312358,1642568912184553108,1642568912184555400,1642568912184582608,1642568912179615400,0
25,1642568912189689150,1642568912189360608,1642568912189360608,1642568912189692525,16.8000,367.7438,42.5500,-0.0298,-0.0117,0.1023,0.2319,-0.0838,-10.4672,21.6510,64.8111,43.5889,-0.0771,-0.0149,0.2932,-0.0297,-0.0099,0.0996,0.0000,0.0000,0.0000,0.0000,0.0000,0.0000,0.0000,0,0,0.0000,0.0000,0.0000,0.0000,0.0000,0.0000,0.0000,0.0000,0.0000,0.0000,0.00000000,0.00000000,0.000,0.000,0.000,0.000,0.000,0,0,0.000,0.000,0.000,0.000,0.000,0,0,0,0,0,0,0,0.0000,0.0000,-0.0500,0.0698,0.0000,0.0000,0.6397,0.0000,0.0000,0.0000,0.0000,0.0000,0.0029,0.0000,0.2932,0.0000,0.0000,0.0000,0.0000,0.0000,0.0000,0.0000,0.0000,0.0000,0.0000,0.0000,0.0000,0.0000,0.0000,0.0698,0.0000,0.0000,0.0000,0.0000,-0.0500,0.0313,0.0313,0.1381,0.1381,1,3,1642568912189362816,1642568912184591691,1642568912189399358,1642568912189385775,1642568912189411816,1642568912189413150,1642568912189657941,1642568912189660566,1642568912189690483,1642568912184590441,0
26,1642568912194673275,1642568912194318941,1642568912194318941,1642568912194676400,16.8000,367.7438,42.5500,-0.0298,-0.0085,0.1033,0.1817,-0.0431,-10.4386,21.6510,64.8111,43.5889,-0.0771,-0.0148,0.2937,-0.0298,-0.0095,0.1009,0.0000,0.0000,0.0000,0.0000,0.0000,0.0000,0.0000,0,0,0.0000,0.0000,0.0000,0.0000,0.0000,0.0000,0.0000,0.0000,0.0000,0.0000,0.00000000,0.00000000,0.000,0.000,0.000,0.000,0.000,0,0,0.000,0.000,0.000,0.000,0.000,0,0,0,0,0,0,0,0.0000,0.0000,-0.0500,0.0698,0.0000,0.0000,0.6402,0.0000,0.0000,0.0000,0.0000,0.0000,0.0029,0.0000,0.2937,0.0000,0.0000,0.0000,0.0000,0.0000,0.0000,0.0000,0.0000,0.0000,0.0000,0.0000,0.0000,0.0000,0.0000,0.0698,0.0000,0.0000,0.0000,0.0000,-0.0500,0.0312,0.0312,0.1381,0.1381,1,3,1642568912194322233,1642568912189700816,1642568912194361358,1642568912194347483,1642568912194374983,1642568912194376525,1642568912194635483,1642568912194637941,1642568912194674566,1642568912189699483,0
27,1642568912199563316,1642568912199243150,1642568912199243150,1642568912199566691,16.8000,367.7438,42.5500,-0.0309,-0.0085,0.1055,0.2272,-0.0383,-10.4839,19.1664,65.1672,43.9321,-0.0772,-0.0148,0.2942,-0.0301,-0.0092,0.1024,0.0000,0.0000,0.0000,0.0000,0.0000,0.0000,0.0000,0,0,0.0000,0.0000,0.0000,0.0000,0.0000,0.0000,0.0000,0.0000,0.0000,0.0000,0.00000000,0.00000000,0.000,0.000,0.000,0.000,0.000,0,0,0.000,0.000,0.000,0.000,0.000,0,0,0,0,0,0,0,0.0000,0.0000,-0.0500,0.0702,0.0000,0.0000,0.6408,0.0000,0.0000,0.0000,0.0000,0.0000,0.0029,0.0000,0.2942,0.0000,0.0000,0.0000,0.0000,0.0000,0.0000,0.0000,0.0000,0.0000,0.0000,0.0000,0.0000,0.0000,0.0000,0.0702,0.0000,0.0000,0.0000,0.0000,-0.0500,0.0309,0.0309,0.1384,0.1384,1,3,1642568912199245650,1642568912194738816,1642568912199279608,1642568912199267275,1642568912199292858,1642568912199294233,1642568912199532858,1642568912199535275,1642568912199564650,1642568912194737025,0
28,1642568912204524191,1642568912204222691,1642568912204222691,1642568912204527150,16.8000,367.7438,42.5500,-0.0266,-0.0096,0.1044,0.2367,-0.0072,-10.3980,19.1664,65.1672,43.9321,-0.0772,-0.0148,0.2947,-0.0290,-0.0093,0.1031,0.0000,0.0000,0.0000,0.0000,0.0000,0.0000,0.0000,0,0,0.0000,0.0000,0.0000,0.0000,0.0000,0.0000,0.0000,0.0000,0.0000,0.0000,0.00000000,0.00000000,0.000,0.000,0.000,0.000,0.000,0,0,0.000,0.000,0.000,0.000,0.000,0,0,0,0,0,0,0,0.0000,0.0000,-0.0500,0.0692,0.0000,0.0000,0.6411,0.0000,0.0000,0.0000,0.0000,0.0000,0.0029,0.0000,0.2947,0.0000,0.0000,0.0000,0.0000,0.0000,0.0000,0.0000,0.0000,0.0000,0.0000,0.0000,0.0000,0.0000,0.0000,0.0692,0.0000,0.0000,0.0000,0.0000,-0.0500,0.0318,0.0318,0.1377,0.1377,1,3,1642568912204225108,1642568912199573691,1642568912204255650,1642568912204243650,1642568912204267358,1642568912204268941,1642568912204497608,1642568912204499733,1642568912204525525,1642568912199572400,0
29,1642568912209832400,1642568912209447691,1642568912209447691,1642568912209836900,16.8000,367.7438,42.5500,-0.0288,-0.0085,0.1076,0.2033,-0.0503,-10.5149,19.1664,65.1672,43.9321,-0.0773,-0.0147,0.2952,-0.0289,-0.0090,0.1046,0.0000,0.0000,0.0000,0.0000,0.0000,0.0000,0.0000,0,0,0.0000,0.0000,0.0000,0.0000,0.0000,0.0000,0.0000,0.0000,0.0000,0.0000,0.00000000,0.00000000,0.000,0.000,0.000,0.000,0.000,0,0,0.000,0.000,0.000,0.000,0.000,0,0,0,0,0,0,0,0.0000,0.0000,-0.0500,0.0695,0.0000,0.0000,0.6416,0.0000,0.0000,0.0000,0.0000,0.0000,0.0029,0.0000,0.2952,0.0000,0.0000,0.0000,0.0000,0.0000,0.0000,0.0000,0.0000,0.0000,0.0000,0.0000,0.0000,0.0000,0.0000,0.0695,0.0000,0.0000,0.0000,0.0000,-0.0500,0.0316,0.0316,0.1378,0.1378,1,3,1642568912209450691,1642568912204532775,1642568912209499150,1642568912209484066,1642568912209514441,1642568912209516233,1642568912209791483,1642568912209796108,1642568912209833733,1642568912204531525,0
30,1642568912214654650,1642568912214293941,1642568912214293941,1642568912214658566,16.8000,367.7438,42.5500,-0.0298,-0.0064,0.1076,0.2056,-0.0694,-10.5101,19.1664,65.1672,43.9321,-0.0774,-0.0147,0.2958,-0.0292,-0.0082,0.1056,0.0000,0.0000,0.0000,0.0000,0.0000,0.0000,0.0000,0,0,0.0000,0.0000,0.0000,0.0000,0.0000,0.0000,0.0000,0.0000,0.0000,0.0000,0.00000000,0.00000000,0.000,0.000,0.000,0.000,0.000,0,0,0.000,0.000,0.000,0.000,0.000,0,0,0,0,0,0,0,0.0000,0.0000,-0.0500,0.0530,0.0000,0.0000,0.6189,0.0000,0.0000,0.0000,0.0000,0.0000,0.0000,0.0000,0.2958,0.0000,0.0000,0.0000,0.0000,0.0000,0.0000,0.0000,0.0000,0.0000,0.0000,0.0000,0.0000,0.0000,0.0000,0.0530,0.0000,0.0000,0.0000,0.0000,-0.0500,0.0486,0.0486,0.1251,0.1251,1,3,1642568912214297066,1642568912210242108,1642568912214336316,1642568912214320941,1642568912214350025,1642568912214351691,1642568912214619400,1642568912214622691,1642568912214655983,1642568912209845150,0
31,1642568912219593275,1642568912219245608,1642568912219245608,1642568912219596900,16.8000,367.7438,42.5500,-0.0298,-0.0064,0.1087,0.2750,-0.0814,-10.3956,18.9889,64.6331,44.1037,-0.0774,-0.0146,0.2963,-0.0294,-0.0076,0.1066,0.0000,0.0000,0.0000,0.0000,0.0000,0.0000,0.0000,0,0,0.0000,0.0000,0.0000,0.0000,0.0000,0.0000,0.0000,0.0000,0.0000,0.0000,0.00000000,0.00000000,0.000,0.000,0.000,0.000,0.000,0,0,0.000,0.000,0.000,0.000,0.000,0,0,0,0,0,0,0,0.0000,0.0000,-0.0500,0.0579,0.0000,0.0000,0.6194,0.0000,0.0000,0.0000,0.0000,0.0000,0.0000,0.0000,0.2963,0.0000,0.0000,0.0000,0.0000,0.0000,0.0000,0.0000,0.0000,0.0000,0.0000,0.0000,0.0000,0.0000,0.0000,0.0579,0.0000,0.0000,0.0000,0.0000,-0.0500,0.0436,0.0436,0.1286,0.1286,1,3,1642568912219248400,1642568912214754816,1642568912219288275,1642568912219274691,1642568912219301191,1642568912219302691,1642568912219558733,1642568912219561775,1642568912219594650,1642568912214752733,0
32,1642568912224640941,1642568912224300108,1642568912224300108,1642568912224644691,16.8000,367.7438,42.5500,-0.0320,-0.0107,0.1076,0.2439,-0.0574,-10.3790,18.9889,64.6331,44.1037,-0.0775,-0.0146,0.2968,-0.0303,-0.0086,0.1069,0.0000,0.0000,0.0000,0.0000,0.0000,0.0000,0.0000,0,0,0.0000,0.0000,0.0000,0.0000,0.0000,0.0000,0.0000,0.0000,0.0000,0.0000,0.00000000,0.00000000,0.000,0.000,0.000,0.000,0.000,0,0,0.000,0.000,0.000,0.000,0.000,0,0,0,0,0,0,0,0.0000,0.0000,-0.0500,0.0618,0.0000,0.0000,0.6199,0.0000,0.0000,0.0000,0.0000,0.0000,0.0000,0.0000,0.2968,0.0000,0.0000,0.0000,0.0000,0.0000,0.0000,0.0000,0.0000,0.0000,0.0000,0.0000,0.0000,0.0000,0.0000,0.0618,0.0000,0.0000,0.0000,0.0000,-0.0500,0.0395,0.0395,0.1317,0.1317,1,3,1642568912224303275,1642568912219606608,1642568912224342108,1642568912224328316,1642568912224355441,1642568912224356775,1642568912224609066,1642568912224611525,1642568912224642275,1642568912219605316,0
33,1642568912229607816,1642568912229285358,1642568912229285358,1642568912229610816,16.8000,367.7438,42.5500,-0.0298,-0.0085,0.1087,0.2224,-0.0191,-10.3718,18.9889,64.6331,44.1037,-0.0776,-0.0145,0.2974,-0.0301,-0.0086,0.1075,0.0000,0.0000,0.0000,0.0000,0.0000,0.0000,0.0000,0,0,0.0000,0.0000,0.0000,0.0000,0.0000,0.0000,0.0000,0.0000,0.0000,0.0000,0.00000000,0.00000000,0.000,0.000,0.000,0.000,0.000,0,0,0.000,0.000,0.000,0.000,0.000,0,0,0,0,0,0,0,0.0000,0.0000,-0.0500,0.0638,0.0000,0.0000,0.6205,0.0000,0.0000,0.0000,0.0000,0.0000,0.0000,0.0000,0.2974,0.0000,0.0000,0.0000,0.0000,0.0000,0.0000,0.0000,0.0000,0.0000,0.0000,0.0000,0.0000,0.0000,0.0000,0.0638,0.0000,0.0000,0.0000,0.0000,-0.0500,0.0375,0.0375,0.1333,0.1333,1,3,1642568912229288566,1642568912224652233,1642568912229322483,1642568912229310608,1642568912229335400,1642568912229336941,1642568912229577441,1642568912229580358,1642568912229609191,1642568912224650941,0
34,1642568912234629441,1642568912234280358,1642568912234280358,1642568912234633150,16.8000,367.7438,42.5500,-0.0309,-0.0096,0.1119,0.2559,-0.0646,-10.4243,18.9889,64.6331,44.1037,-0.0776,-0.0145,0.2979,-0.0304,-0.0089,0.1090,0.0000,0.0000,0.0000,0.0000,0.0000,0.0000,0.0000,0,0,0.0000,0.0000,0.0000,0.0000,0.0000,0.0000,0.0000,0.0000,0.0000,0.0000,0.00000000,0.00000000,0.000,0.000,0.000,0.000,0.000,0,0,0.000,0.000,0.000,0.000,0.000,0,0,0,0,0,0,0,0.0000,0.0000,-0.0500,0.0655,0.0000,0.0000,0.6210,0.0000,0.0000,0.0000,0.0000,0.0000,0.0000,0.0000,0.2979,0.0000,0.0000,0.0000,0.0000,0.0000,0.0000,0.0000,0.0000,0.0000,0.0000,0.0000,0.0000,0.0000,0.0000,0.0655,0.0000,0.0000,0.0000,0.0000,-0.0500,0.0357,0.0357,0.1347,0.1347,1,3,1642568912234283066,1642568912229617983,1642568912234319400,1642568912234306025,1642568912234350150,1642568912234351816,1642568912234598275,1642568912234600525,1642568912234630733,1642568912229616691,0
35,1642568912239648525,1642568912239292233,1642568912239292233,1642568912239651483,16.8000,367.7438,42.5500,-0.0330,-0.0085,0.1108,0.2200,-0.0526,-10.4481,17.2143,63.5647,44.7902,-0.0777,-0.0145,0.2984,-0.0313,-0.0088,0.1096,0.0000,0.0000,0.0000,0.0000,0.0000,0.0000,0.0000,0,0,0.0000,0.0000,0.0000,0.0000,0.0000,0.0000,0.0000,0.0000,0.0000,0.0000,0.00000000,0.00000000,0.000,0.000,0.000,0.000,0.000,0,0,0.000,0.000,0.000,0.000,0.000,0,0,0,0,0,0,0,0.0000,0.0000,-0.0500,0.0842,0.0000,0.0000,0.6449,0.0000,0.0000,0.0000,0.0000,0.0000,0.0029,0.0000,0.2984,0.0000,0.0000,0.0000,0.0000,0.0000,0.0000,0.0000,0.0000,0.0000,0.0000,0.0000,0.0000,0.0000,0.0000,0.0842,0.0000,0.0000,0.0000,0.0000,-0.0500,0.0164,0.0164,0.1495,0.1495,1,3,1642568912239295400,1642568912234692691,1642568912239332900,1642568912239318733,1642568912239346441,1642568912239347775,1642568912239613108,1642568912239616733,1642568912239649858,1642568912234690900,0
36,1642568912244619066,1642568912244280150,1642568912244280150,1642568912244622483,16.8000,367.7438,42.5500,-0.0309,-0.0085,0.1150,0.2009,-0.0550,-10.4266,17.2143,63.5647,44.7902,-0.0778,-0.0144,0.2990,-0.0311,-0.0087,0.1114,0.0000,0.0000,0.0000,0.0000,0.0000,0.0000,0.0000,0,0,0.0000,0.0000,0.0000,0.0000,0.0000,0.0000,0.0000,0.0000,0.0000,0.0000,0.00000000,0.00000000,0.000,0.000,0.000,0.000,0.000,0,0,0.000,0.000,0.000,0.000,0.000,0,0,0,0,0,0,0,0.0000,0.0000,-0.0500,0.0801,0.0000,0.0000,0.6455,0.0000,0.0000,0.0000,0.0000,0.0000,0.0029,0.0000,0.2990,0.0000,0.0000,0.0000,0.0000,0.0000,0.0000,0.0000,0.0000,0.0000,0.0000,0.0000,0.0000,0.0000,0.0000,0.0801,0.0000,0.0000,0.0000,0.0000,-0.0500,0.0206,0.0206,0.1462,0.1462,1,3,1642568912244282900,1642568912239660191,1642568912244321441,1642568912244308025,1642568912244333816,1642568912244335150,1642568912244586608,1642568912244589566,1642568912244620608,1642568912239658733,0
37,1642568912249577608,1642568912249267108,1642568912249267108,1642568912249580525,16.8000,367.7438,42.5500,-0.0330,-0.0096,0.1129,0.2343,-0.0311,-10.4171,17.2143,63.5647,44.7902,-0.0779,-0.0144,0.2995,-0.0318,-0.0090,0.1119,0.0000,0.0000,0.0000,0.0000,0.0000,0.0000,0.0000,0,0,0.0000,0.0000,0.0000,0.0000,0.0000,0.0000,0.0000,0.0000,0.0000,0.0000,0.00000000,0.00000000,0.000,0.000,0.000,0.000,0.000,0,0,0.000,0.000,0.000,0.000,0.000,0,0,0,0,0,0,0,0.0000,0.0000,-0.0500,0.0779,0.0000,0.0000,0.6461,0.0000,0.0000,0.0000,0.0000,0.0000,0.0029,0.0000,0.2995,0.0000,0.0000,0.0000,0.0000,0.0000,0.0000,0.0000,0.0000,0.0000,0.0000,0.0000,0.0000,0.0000,0.0000,0.0779,0.0000,0.0000,0.0000,0.0000,-0.0500,0.0229,0.0229,0.1445,0.1445,1,3,1642568912249269066,1642568912244630733,1642568912249304691,1642568912249292066,1642568912249316566,1642568912249317900,1642568912249550650,1642568912249553275,1642568912249578941,1642568912244629275,0
38,1642568912254583900,1642568912254267608,1642568912254267608,1642568912254587066,16.8000,367.7438,42.5500,-0.0288,-0.0075,0.1150,0.2391,-0.0455,-10.3837,17.2143,63.5647,44.7902,-0.0779,-0.0143,0.3001,-0.0308,-0.0085,0.1130,0.0000,0.0000,0.0000,0.0000,0.0000,0.0000,0.0000,0,0,0.0000,0.0000,0.0000,0.0000,0.0000,0.0000,0.0000,0.0000,0.0000,0.0000,0.00000000,0.00000000,0.000,0.000,0.000,0.000,0.000,0,0,0.000,0.000,0.000,0.000,0.000,0,0,0,0,0,0,0,0.0000,0.0000,-0.0500,0.0751,0.0000,0.0000,0.6466,0.0000,0.0000,0.0000,0.0000,0.0000,0.0029,0.0000,0.3001,0.0000,0.0000,0.0000,0.0000,0.0000,0.0000,0.0000,0.0000,0.0000,0.0000,0.0000,0.0000,0.0000,0.0000,0.0751,0.0000,0.0000,0.0000,0.0000,-0.0500,0.0257,0.0257,0.1423,0.1423,1,3,1642568912254270233,1642568912249588191,1642568912254304275,1642568912254290941,1642568912254317316,1642568912254318650,1642568912254555400,1642568912254557858,1642568912254585233,1642568912249586900,0
39,1642568912259646775,1642568912259300816,1642568912259300816,1642568912259650191,16.8000,367.7438,42.5500,-0.0298,-0.0096,0.1161,0.2272,-0.0503,-10.5196,19.3439,61.7842,44.1037,-0.0780,-0.0143,0.3007,-0.0305,-0.0088,0.1140,0.0000,0.0000,0.0000,0.0000,0.0000,0.0000,0.0000,0,0,0.0000,0.0000,0.0000,0.0000,0.0000,0.0000,0.0000,0.0000,0.0000,0.0000,0.00000000,0.00000000,0.000,0.000,0.000,0.000,0.000,0,0,0.000,0.000,0.000,0.000,0.000,0,0,0,0,0,0,0,0.0000,0.0000,-0.0500,0.0738,0.0000,0.0000,0.6471,0.0000,0.0000,0.0000,0.0000,0.0000,0.0029,0.0000,0.3007,0.0000,0.0000,0.0000,0.0000,0.0000,0.0000,0.0000,0.0000,0.0000,0.0000,0.0000,0.0000,0.0000,0.0000,0.0738,0.0000,0.0000,0.0000,0.0000,-0.0500,0.0271,0.0271,0.1413,0.1413,1,3,1642568912259302941,1642568912254593483,1642568912259339691,1642568912259325858,1642568912259352316,1642568912259353816,1642568912259611816,1642568912259614483,1642568912259648150,1642568912254591983,0
40,1642568912264613691,1642568912264277691,1642568912264277691,1642568912264617025,16.8000,367.7438,42.5500,-0.0309,-0.0085,0.1150,0.2056,-0.0503,-10.4338,19.3439,61.7842,44.1037,-0.0780,-0.0143,0.3012,-0.0306,-0.0087,0.1144,0.0000,0.0000,0.0000,0.0000,0.0000,0.0000,0.0000,0,0,0.0000,0.0000,0.0000,0.0000,0.0000,0.0000,0.0000,0.0000,0.0000,0.0000,0.00000000,0.00000000,0.000,0.000,0.000,0.000,0.000,0,0,0.000,0.000,0.000,0.000,0.000,0,0,0,0,0,0,0,0.0000,0.0000,-0.0500,0.0732,0.0000,0.0000,0.6476,0.0000,0.0000,0.0000,0.0000,0.0000,0.0029,0.0000,0.3012,0.0000,0.0000,0.0000,0.0000,0.0000,0.0000,0.0000,0.0000,0.0000,0.0000,0.0000,0.0000,0.0000,0.0000,0.0732,0.0000,0.0000,0.0000,0.0000,-0.0500,0.0277,0.0277,0.1408,0.1408,1,3,1642568912264279816,1642568912260094233,1642568912264316358,1642568912264302983,1642568912264329483,1642568912264330816,1642568912264579816,1642568912264583358,1642568912264614983,1642568912259710733,0
41,1642568912269726025,1642568912269337941,1642568912269337941,1642568912269730775,16.8000,367.7438,42.5500,-0.0288,-0.0085,0.1182,0.2391,-0.0311,-10.4433,19.3439,61.7842,44.1037,-0.0781,-0.0142,0.3018,-0.0300,-0.0087,0.1157,0.0000,0.0000,0.0000,0.0000,0.0000,0.0000,0.0000,0,0,0.0000,0.0000,0.0000,0.0000,0.0000,0.0000,0.0000,0.0000,0.0000,0.0000,0.00000000,0.00000000,0.000,0.000,0.000,0.000,0.000,0,0,0.000,0.000,0.000,0.000,0.000,0,0,0,0,0,0,0,0.0000,0.0000,-0.0500,0.0723,0.0000,0.0000,0.6481,0.0000,0.0000,0.0000,0.0000,0.0000,0.0029,0.0000,0.3018,0.0000,0.0000,0.0000,0.0000,0.0000,0.0000,0.0000,0.0000,0.0000,0.0000,0.0000,0.0000,0.0000,0.0000,0.0723,0.0000,0.0000,0.0000,0.0000,-0.0500,0.0287,0.0287,0.1401,0.1401,1,3,1642568912269341066,1642568912264647608,1642568912269382816,1642568912269368025,1642568912269397441,1642568912269399191,1642568912269685025,1642568912269688525,1642568912269727525,1642568912264623650,0
42,1642568912274617400,1642568912274292275,1642568912274292275,1642568912274620775,16.8000,367.7438,42.5500,-0.0330,-0.0075,0.1172,0.2296,-0.0550,-10.4481,19.3439,61.7842,44.1037,-0.0782,-0.0142,0.3024,-0.0310,-0.0083,0.1162,0.0000,0.0000,0.0000,0.0000,0.0000,0.0000,0.0000,0,0,0.0000,0.0000,0.0000,0.0000,0.0000,0.0000,0.0000,0.0000,0.0000,0.0000,0.00000000,0.00000000,0.000,0.000,0.000,0.000,0.000,0,0,0.000,0.000,0.000,0.000,0.000,0,0,0,0,0,0,0,0.0000,0.0000,-0.0500,0.0730,0.0000,0.0000,0.6487,0.0000,0.0000,0.0000,0.0000,0.0000,0.0029,0.0000,0.3024,0.0000,0.0000,0.0000,0.0000,0.0000,0.0000,0.0000,0.0000,0.0000,0.0000,0.0000,0.0000,0.0000,0.0000,0.0730,0.0000,0.0000,0.0000,0.0000,-0.0500,0.0279,0.0279,0.1406,0.1406,1,3,1642568912274295316,1642568912269741900,1642568912274330525,1642568912274317191,1642568912274342900,1642568912274344400,1642568912274586358,1642568912274589566,1642568912274618983,1642568912269740608,0
43,1642568912279676441,1642568912279328233,1642568912279328233,1642568912279679983,16.8000,367.7438,42.5500,-0.0309,-0.0075,0.1182,0.2319,-0.0191,-10.4386,19.6988,65.3453,45.4766,-0.0783,-0.0141,0.3030,-0.0310,-0.0080,0.1169,0.0000,0.0000,0.0000,0.0000,0.0000,0.0000,0.0000,0,0,0.0000,0.0000,0.0000,0.0000,0.0000,0.0000,0.0000,0.0000,0.0000,0.0000,0.00000000,0.00000000,0.000,0.000,0.000,0.000,0.000,0,0,0.000,0.000,0.000,0.000,0.000,0,0,0,0,0,0,0,0.0000,0.0000,-0.0500,0.0558,0.0000,0.0000,0.6260,0.0000,0.0000,0.0000,0.0000,0.0000,0.0000,0.0000,0.3030,0.0000,0.0000,0.0000,0.0000,0.0000,0.0000,0.0000,0.0000,0.0000,0.0000,0.0000,0.0000,0.0000,0.0000,0.0558,0.0000,0.0000,0.0000,0.0000,-0.0500,0.0458,0.0458,0.1270,0.1270,1,3,1642568912279330733,1642568912274627191,1642568912279366358,1642568912279352858,1642568912279380816,1642568912279382566,1642568912279643316,1642568912279645941,1642568912279677733,1642568912274625858,0
44,1642568912284886025,1642568912284507650,1642568912284507650,1642568912284889816,16.8000,367.7438,42.5500,-0.0309,-0.0064,0.1182,0.2128,-0.0550,-10.4815,19.6988,65.3453,45.4766,-0.0783,-0.0141,0.3035,-0.0309,-0.0075,0.1173,0.0000,0.0000,0.0000,0.0000,0.0000,0.0000,0.0000,0,0,0.0000,0.0000,0.0000,0.0000,0.0000,0.0000,0.0000,0.0000,0.0000,0.0000,0.00000000,0.00000000,0.000,0.000,0.000,0.000,0.000,0,0,0.000,0.000,0.000,0.000,0.000,0,0,0,0,0,0,0,0.0000,0.0000,-0.0500,0.0602,0.0000,0.0000,0.6266,0.0000,0.0000,0.0000,0.0000,0.0000,0.0000,0.0000,0.3035,0.0000,0.0000,0.0000,0.0000,0.0000,0.0000,0.0000,0.0000,0.0000,0.0000,0.0000,0.0000,0.0000,0.0000,0.0602,0.0000,0.0000,0.0000,0.0000,-0.0500,0.0412,0.0412,0.1305,0.1305,1,3,1642568912284510858,1642568912279744358,1642568912284555650,1642568912284541191,1642568912284570275,1642568912284571608,1642568912284848441,1642568912284851483,1642568912284887400,1642568912279742566,0
45,1642568912289750358,1642568912289393150,1642568912289393150,1642568912289754191,16.8000,367.7438,42.5500,-0.0320,-0.0096,0.1204,0.2224,-0.0407,-10.4100,19.6988,65.3453,45.4766,-0.0784,-0.0140,0.3041,-0.0313,-0.0082,0.1183,0.0000,0.0000,0.0000,0.0000,0.0000,0.0000,0.0000,0,0,0.0000,0.0000,0.0000,0.0000,0.0000,0.0000,0.0000,0.0000,0.0000,0.0000,0.00000000,0.00000000,0.000,0.000,0.000,0.000,0.000,0,0,0.000,0.000,0.000,0.000,0.000,0,0,0,0,0,0,0,0.0000,0.0000,-0.0500,0.0636,0.0000,0.0000,0.6272,0.0000,0.0000,0.0000,0.0000,0.0000,0.0000,0.0000,0.3041,0.0000,0.0000,0.0000,0.0000,0.0000,0.0000,0.0000,0.0000,0.0000,0.0000,0.0000,0.0000,0.0000,0.0000,0.0636,0.0000,0.0000,0.0000,0.0000,-0.0500,0.0377,0.0377,0.1332,0.1332,1,3,1642568912289395691,1642568912284901358,1642568912289437275,1642568912289423483,1642568912289450900,1642568912289452233,1642568912289715650,1642568912289718858,1642568912289751691,1642568912284899858,0
46,1642568912294666608,1642568912294304650,1642568912294304650,1642568912294670358,16.8000,367.7438,42.5500,-0.0309,-0.0075,0.1204,0.2033,-0.0479,-10.3623,19.6988,65.3453,45.4766,-0.0785,-0.0140,0.3047,-0.0312,-0.0079,0.1190,0.0000,0.0000,0.0000,0.0000,0.0000,0.0000,0.0000,0,0,0.0000,0.0000,0.0000,0.0000,0.0000,0.0000,0.0000,0.0000,0.0000,0.0000,0.00000000,0.00000000,0.000,0.000,0.000,0.000,0.000,0,0,0.000,0.000,0.000,0.000,0.000,0,0,0,0,0,0,0,0.0000,0.0000,-0.0500,0.0656,0.0000,0.0000,0.6277,0.0000,0.0000,0.0000,0.0000,0.0000,0.0000,0.0000,0.3047,0.0000,0.0000,0.0000,0.0000,0.0000,0.0000,0.0000,0.0000,0.0000,0.0000,0.0000,0.0000,0.0000,0.0000,0.0656,0.0000,0.0000,0.0000,0.0000,-0.0500,0.0356,0.0356,0.1347,0.1347,1,3,1642568912294307233,1642568912289763733,1642568912294347775,1642568912294333441,1642568912294361650,1642568912294363191,1642568912294629900,1642568912294633566,1642568912294667941,1642568912289762233,0
47,1642568912299613191,1642568912299282900,1642568912299282900,1642568912299616941,16.8000,367.7438,42.5500,-0.0288,-0.0075,0.1193,0.2056,-0.0168,-10.3837,19.8763,64.8111,43.2457,-0.0785,-0.0139,0.3053,-0.0304,-0.0078,0.1191,0.0000,0.0000,0.0000,0.0000,0.0000,0.0000,0.0000,0,0,0.0000,0.0000,0.0000,0.0000,0.0000,0.0000,0.0000,0.0000,0.0000,0.0000,0.00000000,0.00000000,0.000,0.000,0.000,0.000,0.000,0,0,0.000,0.000,0.000,0.000,0.000,0,0,0,0,0,0,0,0.0000,0.0000,-0.0500,0.0664,0.0000,0.0000,0.6282,0.0000,0.0000,0.0000,0.0000,0.0000,0.0000,0.0000,0.3053,0.0000,0.0000,0.0000,0.0000,0.0000,0.0000,0.0000,0.0000,0.0000,0.0000,0.0000,0.0000,0.0000,0.0000,0.0664,0.0000,0.0000,0.0000,0.0000,-0.0500,0.0347,0.0347,0.1354,0.1354,1,3,1642568912299285358,1642568912294680025,1642568912299320400,1642568912299308025,1642568912299333691,1642568912299335441,1642568912299581816,1642568912299584275,1642568912299614525,1642568912294678483,0
48,1642568912304789191,1642568912304410275,1642568912304410275,1642568912304793608,16.8000,367.7438,42.5500,-0.0309,-0.0085,0.1214,0.2319,0.0000,-10.4505,19.8763,64.8111,43.2457,-0.0786,-0.0139,0.3059,-0.0305,-0.0080,0.1199,0.0000,0.0000,0.0000,0.0000,0.0000,0.0000,0.0000,0,0,0.0000,0.0000,0.0000,0.0000,0.0000,0.0000,0.0000,0.0000,0.0000,0.0000,0.00000000,0.00000000,0.000,0.000,0.000,0.000,0.000,0,0,0.000,0.000,0.000,0.000,0.000,0,0,0,0,0,0,0,0.0000,0.0000,-0.0500,0.0848,0.0000,0.0000,0.6520,0.0000,0.0000,0.0000,0.0000,0.0000,0.0029,0.0000,0.3059,0.0000,0.0000,0.0000,0.0000,0.0000,0.0000,0.0000,0.0000,0.0000,0.0000,0.0000,0.0000,0.0000,0.0000,0.0848,0.0000,0.0000,0.0000,0.0000,-0.0500,0.0158,0.0158,0.1500,0.1500,1,3,1642568912304413150,1642568912299686025,1642568912304456275,1642568912304441358,1642568912304471150,1642568912304472483,1642568912304750441,1642568912304753400,1642568912304790525,1642568912299683983,0
49,1642568912309640525,1642568912309298941,1642568912309298941,1642568912309644191,16.8000,367.7438,42.5500,-0.0288,-0.0107,0.1193,0.2056,0.0239,-10.4195,19.8763,64.8111,43.2457,-0.0787,-0.0138,0.3065,-0.0299,-0.0089,0.1197,0.0000,0.0000,0.0000,0.0000,0.0000,0.0000,0.0000,0,0,0.0000,0.0000,0.0000,0.0000,0.0000,0.0000,0.0000,0.0000,0.0000,0.0000,0.00000000,0.00000000,0.000,0.000,0.000,0.000,0.000,0,0,0.000,0.000,0.000,0.000,0.000,0,0,0,0,0,0,0,0.0000,0.0000,-0.0500,0.0805,0.0000,0.0000,0.6525,0.0000,0.0000,0.0000,0.0000,0.0000,0.0029,0.0000,0.3065,0.0000,0.0000,0.0000,0.0000,0.0000,0.0000,0.0000,0.0000,0.0000,0.0000,0.0000,0.0000,0.0000,0.0000,0.0805,0.0000,0.0000,0.0000,0.0000,-0.0500,0.0201,0.0201,0.1466,0.1466,1,3,1642568912309301691,1642568912304804108,1642568912309341400,1642568912309327566,1642568912309353816,1642568912309355108,1642568912309605566,1642568912309607775,1642568912309641900,1642568912304802608,0
50,1642568912314579025,1642568912314261858,1642568912314261858,1642568912314582191,16.8000,367.6842,42.5500,-0.0298,-0.0085,0.1204,0.1937,-0.0455,-10.4219,19.8763,64.8111,43.2457,-0.0787,-0.0138,0.3071,-0.0299,-0.0088,0.1199,0.0000,0.0000,0.0000,0.0000,0.0000,0.0000,0.0000,0,0,0.0000,0.0000,0.0000,0.0000,0.0000,0.0000,0.0000,0.0000,0.0000,0.0000,0.00000000,0.00000000,0.000,0.000,0.000,0.000,0.000,0,0,0.000,0.000,0.000,0.000,0.000,0,0,0,0,0,0,0,0.0000,0.0000,-0.0500,0.0781,0.0000,0.0000,0.6531,0.0000,0.0000,0.0000,0.0000,0.0000,0.0029,0.0000,0.3071,0.0000,0.0000,0.0000,0.0000,0.0000,0.0000,0.0000,0.0000,0.0000,0.0000,0.0000,0.0000,0.0000,0.0000,0.0781,0.0000,0.0000,0.0000,0.0000,-0.0500,0.0226,0.0226,0.1447,0.1447,1,3,1642568912314263900,1642568912310034066,1642568912314297400,1642568912314285191,1642568912314310191,1642568912314311983,1642568912314549275,1642568912314552858,1642568912314580400,1642568912309651900,0
51,1642568912319572316,1642568912319260358,1642568912319260358,1642568912319575483,16.8000,367.6842,42.5500,-0.0330,-0.0085,0.1246,0.2654,-0.0168,-10.4290,19.3439,63.9208,44.1037,-0.0788,-0.0138,0.3077,-0.0309,-0.0087,0.1215,0.0000,0.0000,0.0000,0.0000,0.0000,0.0000,0.0000,0,0,0.0000,0.0000,0.0000,0.0000,0.0000,0.0000,0.0000,0.0000,0.0000,0.0000,0.00000000,0.00000000,0.000,0.000,0.000,0.000,0.000,0,0,0.000,0.000,0.000,0.000,0.000,0,0,0,0,0,0,0,0.0000,0.0000,-0.0500,0.0773,0.0000,0.0000,0.6537,0.0000,0.0000,0.0000,0.0000,0.0000,0.0029,0.0000,0.3077,0.0000,0.0000,0.0000,0.0000,0.0000,0.0000,0.0000,0.0000,0.0000,0.0000,0.0000,0.0000,0.0000,0.0000,0.0773,0.0000,0.0000,0.0000,0.0000,-0.0500,0.0234,0.0234,0.1441,0.1441,1,3,1642568912319262608,1642568912314588358,1642568912319294775,1642568912319282525,1642568912319307150,1642568912319308483,1642568912319544816,1642568912319546775,1642568912319573691,1642568912314587066,0
52,1642568912324648858,1642568912324305983,1642568912324305983,1642568912324652691,16.8000,367.6842,42.5500,-0.0320,-0.0085,0.1214,0.2200,-0.0431,-10.5053,19.3439,63.9208,44.1037,-0.0789,-0.0137,0.3083,-0.0313,-0.0086,0.1215,0.0000,0.0000,0.0000,0.0000,0.0000,0.0000,0.0000,0,0,0.0000,0.0000,0.0000,0.0000,0.0000,0.0000,0.0000,0.0000,0.0000,0.0000,0.00000000,0.00000000,0.000,0.000,0.000,0.000,0.000,0,0,0.000,0.000,0.000,0.000,0.000,0,0,0,0,0,0,0,0.0000,0.0000,-0.0500,0.0764,0.0000,0.0000,0.6543,0.0000,0.0000,0.0000,0.0000,0.0000,0.0029,-0.0029,0.3083,0.0000,0.0000,0.0000,0.0000,0.0000,0.0000,0.0000,0.0000,0.0000,0.0000,0.0000,0.0000,0.0000,0.0000,0.0764,0.0000,0.0000,0.0000,0.0000,-0.0500,0.0245,0.0245,0.1433,0.1433,1,3,1642568912324308941,1642568912319637566,1642568912324345900,1642568912324333025,1642568912324358900,1642568912324360191,1642568912324615691,1642568912324618608,1642568912324650233,1642568912319636025,0
53,1642568912329611275,1642568912329290525,1642568912329290525,1642568912329614441,16.8000,367.6842,42.5500,-0.0309,-0.0096,0.1246,0.2009,-0.0574,-10.4386,19.3439,63.9208,44.1037,-0.0789,-0.0137,0.3089,-0.0312,-0.0090,0.1225,0.0000,0.0000,0.0000,0.0000,0.0000,0.0000,0.0000,0,0,0.0000,0.0000,0.0000,0.0000,0.0000,0.0000,0.0000,0.0000,0.0000,0.0000,0.00000000,0.00000000,0.000,0.000,0.000,0.000,0.000,0,0,0.000,0.000,0.000,0.000,0.000,0,0,0,0,0,0,0,0.0000,0.0000,-0.0500,0.0753,0.0000,0.0000,0.6549,0.0000,0.0000,0.0000,0.0000,0.0000,0.0029,-0.0029,0.3089,0.0000,0.0000,0.0000,0.0000,0.0000,0.0000,0.0000,0.0000,0.0000,0.0000,0.0000,0.0000,0.0000,0.0000,0.0753,0.0000,0.0000,0.0000,0.0000,-0.0500,0.0255,0.0255,0.1425,0.1425,1,3,1642568912329292983,1642568912324660858,1642568912329326608,1642568912329313858,1642568912329339650,1642568912329341150,1642568912329580316,1642568912329582816,1642568912329612608,1642568912324659108,0
54,1642568912334570400,1642568912334271733,1642568912334271733,1642568912334573275,16.8000,367.6842,42.5500,-0.0341,-0.0107,0.1246,0.2487,-0.0431,-10.4386,19.3439,63.9208,44.1037,-0.0790,-0.0136,0.3095,-0.0321,-0.0095,0.1232,0.0000,0.0000,0.0000,0.0000,0.0000,0.0000,0.0000,0,0,0.0000,0.0000,0.0000,0.0000,0.0000,0.0000,0.0000,0.0000,0.0000,0.0000,0.00000000,0.00000000,0.000,0.000,0.000,0.000,0.000,0,0,0.000,0.000,0.000,0.000,0.000,0,0,0,0,0,0,0,0.0000,0.0000,-0.0500,0.0756,0.0000,0.0000,0.6555,0.0000,0.0000,0.0000,0.0000,0.0000,0.0029,-0.0029,0.3095,0.0000,0.0000,0.0000,0.0000,0.0000,0.0000,0.0000,0.0000,0.0000,0.0000,0.0000,0.0000,0.0000,0.0000,0.0756,0.0000,0.0000,0.0000,0.0000,-0.0500,0.0253,0.0253,0.1427,0.1427,1,3,1642568912334273691,1642568912329621358,1642568912334304691,1642568912334292608,1642568912334316400,1642568912334317733,1642568912334544358,1642568912334546691,1642568912334571691,1642568912329619858,0
55,1642568912339607150,1642568912339278150,1642568912339278150,1642568912339610691,16.8000,367.6842,42.5500,-0.0298,-0.0096,0.1246,0.2080,-0.0239,-10.3623,20.4087,64.2770,42.3876,-0.0791,-0.0136,0.3101,-0.0314,-0.0095,0.1237,0.0000,0.0000,0.0000,0.0000,0.0000,0.0000,0.0000,0,0,0.0000,0.0000,0.0000,0.0000,0.0000,0.0000,0.0000,0.0000,0.0000,0.0000,0.00000000,0.00000000,0.000,0.000,0.000,0.000,0.000,0,0,0.000,0.000,0.000,0.000,0.000,0,0,0,0,0,0,0,0.0000,0.0000,-0.0500,0.0744,0.0000,0.0000,0.6560,0.0000,0.0000,0.0000,0.0000,0.0000,0.0029,-0.0029,0.3101,0.0000,0.0000,0.0000,0.0000,0.0000,0.0000,0.0000,0.0000,0.0000,0.0000,0.0000,0.0000,0.0000,0.0000,0.0744,0.0000,0.0000,0.0000,0.0000,-0.0500,0.0265,0.0265,0.1418,0.1418,1,3,1642568912339280941,1642568912334579858,1642568912339315775,1642568912339302816,1642568912339328733,1642568912339330566,1642568912339574150,1642568912339576900,1642568912339608483,1642568912334578358,0
56,1642568912344617025,1642568912344281358,1642568912344281358,1642568912344620358,16.8000,367.6842,42.5500,-0.0330,-0.0075,0.1236,0.2248,-0.0742,-10.3670,20.4087,64.2770,42.3876,-0.0792,-0.0135,0.3107,-0.0319,-0.0088,0.1237,0.0000,0.0000,0.0000,0.0000,0.0000,0.0000,0.0000,0,0,0.0000,0.0000,0.0000,0.0000,0.0000,0.0000,0.0000,0.0000,0.0000,0.0000,0.00000000,0.00000000,0.000,0.000,0.000,0.000,0.000,0,0,0.000,0.000,0.000,0.000,0.000,0,0,0,0,0,0,0,0.0000,0.0000,-0.0500,0.0747,0.0000,0.0000,0.6567,0.0000,0.0000,0.0000,0.0000,0.0000,0.0029,-0.0029,0.3107,0.0000,0.0000,0.0000,0.0000,0.0000,0.0000,0.0000,0.0000,0.0000,0.0000,0.0000,0.0000,0.0000,0.0000,0.0747,0.0000,0.0000,0.0000,0.0000,-0.0500,0.0262,0.0262,0.1420,0.1420,1,3,1642568912344283900,1642568912339618691,1642568912344320441,1642568912344306900,1642568912344333733,1642568912344335275,1642568912344589025,1642568912344591316,1642568912344618316,1642568912339617191,0
57,1642568912349648108,1642568912349315525,1642568912349315525,1642568912349651650,16.8000,367.6842,42.5500,-0.0320,-0.0096,0.1236,0.2319,-0.0120,-10.4457,20.4087,64.2770,42.3876,-0.0792,-0.0135,0.3113,-0.0319,-0.0091,0.1236,0.0000,0.0000,0.0000,0.0000,0.0000,0.0000,0.0000,0,0,0.0000,0.0000,0.0000,0.0000,0.0000,0.0000,0.0000,0.0000,0.0000,0.0000,0.00000000,0.00000000,0.000,0.000,0.000,0.000,0.000,0,0,0.000,0.000,0.000,0.000,0.000,0,0,0,0,0,0,0,0.0000,0.0000,-0.0500,0.0576,0.0000,0.0000,0.6340,0.0000,0.0000,0.0000,0.0000,0.0000,0.0000,-0.0029,0.3113,0.0000,0.0000,0.0000,0.0000,0.0000,0.0000,0.0000,0.0000,0.0000,0.0000,0.0000,0.0000,0.0000,0.0000,0.0576,0.0000,0.0000,0.0000,0.0000,-0.0500,0.0439,0.0439,0.1284,0.1284,1,3,1642568912349318316,1642568912344680191,1642568912349353691,1642568912349340650,1642568912349366150,1642568912349367441,1642568912349616316,1642568912349618983,1642568912349649650,1642568912344678608,0
58,1642568912354604608,1642568912354293650,1642568912354293650,1642568912354608066,16.8000,367.6842,42.5500,-0.0309,-0.0085,0.1246,0.2248,-0.0239,-10.4171,20.4087,64.2770,42.3876,-0.0793,-0.0134,0.3119,-0.0316,-0.0089,0.1240,0.0000,0.0000,0.0000,0.0000,0.0000,0.0000,0.0000,0,0,0.0000,0.0000,0.0000,0.0000,0.0000,0.0000,0.0000,0.0000,0.0000,0.0000,0.00000000,0.00000000,0.000,0.000,0.000,0.000,0.000,0,0,0.000,0.000,0.000,0.000,0.000,0,0,0,0,0,0,0,0.0000,0.0000,-0.0500,0.0618,0.0000,0.0000,0.6345,0.0000,0.0000,0.0000,0.0000,0.0000,0.0000,-0.0029,0.3119,0.0000,0.0000,0.0000,0.0000,0.0000,0.0000,0.0000,0.0000,0.0000,0.0000,0.0000,0.0000,0.0000,0.0000,0.0618,0.0000,0.0000,0.0000,0.0000,-0.0500,0.0395,0.0395,0.1317,0.1317,1,3,1642568912354296400,1642568912349658816,1642568912354328983,1642568912354316400,1642568912354340900,1642568912354342233,1642568912354574275,1642568912354577108,1642568912354605983,1642568912349657316,0
59,1642568912359549566,1642568912359241025,1642568912359241025,1642568912359552941,16.8000,367.6842,42.5500,-0.0298,-0.0096,0.1236,0.1889,-0.0239,-10.4624,20.5861,65.1672,45.3050,-0.0794,-0.0134,0.3125,-0.0310,-0.0091,0.1238,0.0000,0.0000,0.0000,0.0000,0.0000,0.0000,0.0000,0,0,0.0000,0.0000,0.0000,0.0000,0.0000,0.0000,0.0000,0.0000,0.0000,0.0000,0.00000000,0.00000000,0.000,0.000,0.000,0.000,0.000,0,0,0.000,0.000,0.000,0.000,0.000,0,0,0,0,0,0,0,0.0000,0.0000,-0.0500,0.0645,0.0000,0.0000,0.6351,0.0000,0.0000,0.0000,0.0000,0.0000,0.0000,-0.0029,0.3125,0.0000,0.0000,0.0000,0.0000,0.0000,0.0000,0.0000,0.0000,0.0000,0.0000,0.0000,0.0000,0.0000,0.0000,0.0645,0.0000,0.0000,0.0000,0.0000,-0.0500,0.0367,0.0367,0.1339,0.1339,1,3,1642568912359242983,1642568912354614775,1642568912359274108,1642568912359262191,1642568912359286066,1642568912359287400,1642568912359522066,1642568912359524191,1642568912359551108,1642568912354613525,0
60,1642568912364537233,1642568912364233441,1642568912364233441,1642568912364540233,16.8000,367.7583,42.5500,-0.0320,-0.0107,0.1225,0.2080,-0.0814,-10.4481,20.5861,65.1672,45.3050,-0.0795,-0.0134,0.3131,-0.0313,-0.0096,0.1234,0.0000,0.0000,0.0000,0.0000,0.0000,0.0000,0.0000,0,0,0.0000,0.0000,0.0000,0.0000,0.0000,0.0000,0.0000,0.0000,0.0000,0.0000,0.00000000,0.00000000,0.000,0.000,0.000,0.000,0.000,0,0,0.000,0.000,0.000,0.000,0.000,0,0,0,0,0,0,0,0.0000,0.0000,-0.0500,0.0671,0.0000,0.0000,0.6357,0.0000,0.0000,0.0000,0.0000,0.0000,0.0000,-0.0029,0.3131,0.0000,0.0000,0.0000,0.0000,0.0000,0.0000,0.0000,0.0000,0.0000,0.0000,0.0000,0.0000,0.0000,0.0000,0.0671,0.0000,0.0000,0.0000,0.0000,-0.0500,0.0340,0.0340,0.1360,0.1360,1,3,1642568912364235400,1642568912359912691,1642568912364266691,1642568912364254108,1642568912364277900,1642568912364279191,1642568912364510358,1642568912364512691,1642568912364538608,1642568912359557941,0
61,1642568912369642066,1642568912369307858,1642568912369307858,1642568912369645608,16.8000,367.7583,42.5500,-0.0330,-0.0096,0.1236,0.2319,-0.0622,-10.4505,20.5861,65.1672,45.3050,-0.0795,-0.0133,0.3137,-0.0319,-0.0096,0.1235,0.0000,0.0000,0.0000,0.0000,0.0000,0.0000,0.0000,0,0,0.0000,0.0000,0.0000,0.0000,0.0000,0.0000,0.0000,0.0000,0.0000,0.0000,0.00000000,0.00000000,0.000,0.000,0.000,0.000,0.000,0,0,0.000,0.000,0.000,0.000,0.000,0,0,0,0,0,0,0,0.0000,0.0000,-0.0500,0.0861,0.0000,0.0000,0.6595,0.0000,0.0000,0.0000,0.0000,0.0000,0.0029,-0.0029,0.3137,0.0000,0.0000,0.0000,0.0000,0.0000,0.0000,0.0000,0.0000,0.0000,0.0000,0.0000,0.0000,0.0000,0.0000,0.0861,0.0000,0.0000,0.0000,0.0000,-0.0500,0.0144,0.0144,0.1510,0.1510,1,3,1642568912369310066,1642568912364592400,1642568912369346900,1642568912369332941,1642568912369360858,1642568912369362400,1642568912369610775,1642568912369613275,1642568912369643358,1642568912364590441,0
62,1642568912374550358,1642568912374246733,1642568912374246733,1642568912374553483,16.8000,367.7583,42.5500,-0.0352,-0.0096,0.1214,0.2104,-0.0215,-10.4123,20.5861,65.1672,45.3050,-0.0796,-0.0133,0.3143,-0.0330,-0.0096,0.1228,0.0000,0.0000,0.0000,0.0000,0.0000,0.0000,0.0000,0,0,0.0000,0.0000,0.0000,0.0000,0.0000,0.0000,0.0000,0.0000,0.0000,0.0000,0.00000000,0.00000000,0.000,0.000,0.000,0.000,0.000,0,0,0.000,0.000,0.000,0.000,0.000,0,0,0,0,0,0,0,0.0000,0.0000,-0.0500,0.0834,0.0000,0.0000,0.6602,0.0000,0.0000,0.0000,0.0000,0.0000,0.0029,-0.0029,0.3143,0.0000,0.0000,0.0000,0.0000,0.0000,0.0000,0.0000,0.0000,0.0000,0.0000,0.0000,0.0000,0.0000,0.0000,0.0834,0.0000,0.0000,0.0000,0.0000,-0.0500,0.0172,0.0172,0.1489,0.1489,1,3,1642568912374248900,1642568912369653316,1642568912374281733,1642568912374269191,1642568912374293316,1642568912374294691,1642568912374523650,1642568912374525983,1642568912374551900,1642568912369651525,0
63,1642568912379664441,1642568912379321566,1642568912379321566,1642568912379668150,16.8000,367.7583,42.5500,-0.0330,-0.0075,0.1225,0.2176,-0.0598,-10.3933,18.4565,64.4550,44.9618,-0.0797,-0.0132,0.3149,-0.0330,-0.0089,0.1227,0.0000,0.0000,0.0000,0.0000,0.0000,0.0000,0.0000,0,0,0.0000,0.0000,0.0000,0.0000,0.0000,0.0000,0.0000,0.0000,0.0000,0.0000,0.00000000,0.00000000,0.000,0.000,0.000,0.000,0.000,0,0,0.000,0.000,0.000,0.000,0.000,0,0,0,0,0,0,0,0.0000,0.0000,-0.0500,0.0808,0.0000,0.0000,0.6608,0.0000,0.0000,0.0000,0.0000,0.0000,0.0029,-0.0029,0.3149,0.0000,0.0000,0.0000,0.0000,0.0000,0.0000,0.0000,0.0000,0.0000,0.0000,0.0000,0.0000,0.0000,0.0000,0.0808,0.0000,0.0000,0.0000,0.0000,-0.0500,0.0199,0.0199,0.1468,0.1468,1,3,1642568912379324483,1642568912374559066,1642568912379361191,1642568912379348275,1642568912379374525,1642568912379375858,1642568912379628608,1642568912379631858,1642568912379665775,1642568912374557816,0
