loop_index,last_step_ns,imu_time_ns,bmp_time_ns,epoch_time_ns,v_batt,alt_bmp_raw,bmp_temp,gyro_roll,gyro_pitch,gyro_yaw,accel_X,accel_Y,accel_Z,mag_X, mag_Y, mag_Z,roll,pitch,yaw,rollDot,pitchDot,yawDot,X,Y,Z,Xdot,Ydot,Zdot,Zddot,xbee_time,xbee_time_received_ns,xbee_x,xbee_y,xbee_z,xbee_qw,xbee_qx,xbee_qy,xbee_qz,xbee_roll,xbee_pitch,xbee_yaw,gps_lat,gps_lon,gps_gpsAlt,gps_ned_x,gps_ned_y,gps_ned_z,gps_spd,gps_fix,gps_sat,gps_headingNc,gps_cog,gps_gpsVsi,gps_hdop,gps_vdop,gps_year,gps_month,gps_day,gps_hour,gps_minute,gps_second,gps_time_received_ns,X_thrt,Y_thrt,Z_thrt,roll_thrt,pitch_thrt,yaw_thrt,sp_roll_dot,sp_pitch_dot,sp_yaw_dot,sp_roll_dot_ff,sp_pitch_dot_ff,sp_yaw_dot_ff,sp_roll,sp_pitch,sp_yaw,sp_roll_ff,sp_pitch_ff,sp_X,sp_Y,sp_Z,sp_Xdot,sp_Ydot,sp_Zdot,sp_Xdot_ff,sp_Ydot_ff,sp_Zdot_ff,sp_Xddot,sp_Yddot,sp_Zddot,u_roll,u_pitch,u_yaw,u_X,u_Y,u_Z,mot_1,mot_2,mot_3,mot_4,dsm_con,flight_mode,tIMU,tIMU_END,tSM,tXBEE,tGPS,tPNI,tNAV,tGUI,tCTR,tLOG,tNTP
1,1.64257E+18,1.64257E+18,1.64257E+18,1.64257E+18,16.8,367.7145,42.55,-0.0277,-0.0096,0.0692,0.2678,-0.0598,-10.5101,17.9241,65.7014,43.0741,-0.0756,-0.0156,0.283,-0.0271,-0.0099,0.0662,0,0,0,0,0,0,0,0,0,0,0,0,0,0,0,0,0,0,0,0,0,0,0,0,0,0,0,0,0,0,0,0,0,0,0,0,0,0,0,0,0,0,-0.05,0.4415,0,0,0.605,0,0,0,0,0,0,0,0.283,0,0,0,0,0,0,0,0,0,0,0,0,0,0,0.1,0,0,0,0,-0.05,0,0,0.1621,0.1621,1,3,1.64257E+18,1.64257E+18,1.64257E+18,1.64257E+18,1.64257E+18,1.64257E+18,1.64257E+18,1.64257E+18,1.64257E+18,1.64257E+18,0
2,1.64257E+18,1.64257E+18,1.64257E+18,1.64257E+18,16.8,367.7145,42.55,-0.0266,-0.0085,0.0703,0.2439,-0.0311,-10.3933,17.9241,65.7014,43.0741,-0.0757,-0.0155,0.2833,-0.027,-0.0094,0.0676,0,0,0,0,0,0,0,0,0,0,0,0,0,0,0,0,0,0,0,0,0,0,0,0,0,0,0,0,0,0,0,0,0,0,0,0,0,0,0,0,0,0,-0.05,0.3228,0,0,0.6054,0,0,0,0,0,0,0,0.2833,0,0,0,0,0,0,0,0,0,0,0,0,0,0,0.1,0,0,0,0,-0.05,0,0,0.1621,0.1621,1,3,1.64257E+18,1.64257E+18,1.64257E+18,1.64257E+18,1.64257E+18,1.64257E+18,1.64257E+18,1.64257E+18,1.64257E+18,1.64257E+18,0
3,1.64257E+18,1.64257E+18,1.64257E+18,1.64257E+18,16.8,367.7145,42.55,-0.0298,-0.0085,0.0735,0.2224,-0.0742,-10.429,18.2791,64.9892,43.7605,-0.0757,-0.0155,0.2837,-0.0279,-0.0091,0.0695,0,0,0,0,0,0,0,0,0,0,0,0,0,0,0,0,0,0,0,0,0,0,0,0,0,0,0,0,0,0,0,0,0,0,0,0,0,0,0,0,0,0,-0.05,0.2424,0,0,0.6059,0,0,0,0,0,0,0,0.2837,0,0,0,0,0,0,0,0,0,0,0,0,0,0,0.1,0,0,0,0,-0.05,0,0,0.1621,0.1621,1,3,1.64257E+18,1.64257E+18,1.64257E+18,1.64257E+18,1.64257E+18,1.64257E+18,1.64257E+18,1.64257E+18,1.64257E+18,1.64257E+18,0
4,1.64257E+18,1.64257E+18,1.64257E+18,1.64257E+18,16.8,367.7145,42.55,-0.0288,-0.0096,0.0746,0.2415,-0.0311,-10.3861,18.2791,64.9892,43.7605,-0.0758,-0.0155,0.284,-0.0282,-0.0093,0.0712,0,0,0,0,0,0,0,0,0,0,0,0,0,0,0,0,0,0,0,0,0,0,0,0,0,0,0,0,0,0,0,0,0,0,0,0,0,0,0,0,0,0,-0.05,0.2038,0,0,0.6296,0,0,0,0,0,0.0029,-0.0029,0.284,0,0,0,0,0,0,0,0,0,0,0,0,0,0,0.1,0,0,0,0,-0.05,0,0,0.1621,0.1621,1,3,1.64257E+18,1.64257E+18,1.64257E+18,1.64257E+18,1.64257E+18,1.64257E+18,1.64257E+18,1.64257E+18,1.64257E+18,1.64257E+18,0
5,1.64257E+18,1.64257E+18,1.64257E+18,1.64257E+18,16.8,367.7145,42.55,-0.0288,-0.0096,0.0778,0.2391,-0.0335,-10.3813,18.2791,64.9892,43.7605,-0.0758,-0.0155,0.2844,-0.0284,-0.0094,0.0734,0,0,0,0,0,0,0,0,0,0,0,0,0,0,0,0,0,0,0,0,0,0,0,0,0,0,0,0,0,0,0,0,0,0,0,0,0,0,0,0,0,0,-0.05,0.161,0,0,0.63,0,0,0,0,0,0.0029,-0.0029,0.2844,0,0,0,0,0,0,0,0,0,0,0,0,0,0,0.1,0,0,0,0,-0.05,0,0,0.1621,0.1621,1,3,1.64257E+18,1.64257E+18,1.64257E+18,1.64257E+18,1.64257E+18,1.64257E+18,1.64257E+18,1.64257E+18,1.64257E+18,1.64257E+18,0
6,1.64257E+18,1.64257E+18,1.64257E+18,1.64257E+18,16.8,367.7145,42.55,-0.0277,-0.0085,0.0788,0.2128,-0.0311,-10.4052,18.2791,64.9892,43.7605,-0.0759,-0.0154,0.2848,-0.0282,-0.0091,0.0752,0,0,0,0,0,0,0,0,0,0,0,0,0,0,0,0,0,0,0,0,0,0,0,0,0,0,0,0,0,0,0,0,0,0,0,0,0,0,0,0,0,0,-0.05,0.1314,0,0,0.6305,0,0,0,0,0,0.0029,-0.0029,0.2848,0,0,0,0,0,0,0,0,0,0,0,0,0,0,0.1,0,0,0,0,-0.05,0,0,0.1621,0.1621,1,3,1.64257E+18,1.64257E+18,1.64257E+18,1.64257E+18,1.64257E+18,1.64257E+18,1.64257E+18,1.64257E+18,1.64257E+18,1.64257E+18,0
7,1.64257E+18,1.64257E+18,1.64257E+18,1.64257E+18,16.8,367.7145,42.55,-0.0277,-0.0107,0.0778,0.2152,-0.0407,-10.4958,17.9241,63.9208,43.0741,-0.076,-0.0154,0.2852,-0.028,-0.0096,0.0761,0,0,0,0,0,0,0,0,0,0,0,0,0,0,0,0,0,0,0,0,0,0,0,0,0,0,0,0,0,0,0,0,0,0,0,0,0,0,0,0,0,0,-0.05,0.1112,0,0,0.6309,0,0,0,0,0,0.0029,-0.0029,0.2852,0,0,0,0,0,0,0,0,0,0,0,0,0,0,0.1,0,0,0,0,-0.05,0,0,0.1621,0.1621,1,3,1.64257E+18,1.64257E+18,1.64257E+18,1.64257E+18,1.64257E+18,1.64257E+18,1.64257E+18,1.64257E+18,1.64257E+18,1.64257E+18,0
8,1.64257E+18,1.64257E+18,1.64257E+18,1.64257E+18,16.8,367.7145,42.55,-0.0277,-0.0096,0.0788,0.2128,-0.0814,-10.4481,17.9241,63.9208,43.0741,-0.076,-0.0154,0.2855,-0.0279,-0.0096,0.077,0,0,0,0,0,0,0,0,0,0,0,0,0,0,0,0,0,0,0,0,0,0,0,0,0,0,0,0,0,0,0,0,0,0,0,0,0,0,0,0,0,0,-0.05,0.0804,0,0,0.6081,0,0,0,0,0,0,0,0.2855,0,0,0,0,0,0,0,0,0,0,0,0,0,0,0.0804,0,0,0,0,-0.05,0.0202,0.0202,0.1466,0.1466,1,3,1.64257E+18,1.64257E+18,1.64257E+18,1.64257E+18,1.64257E+18,1.64257E+18,1.64257E+18,1.64257E+18,1.64257E+18,1.64257E+18,0
9,1.64257E+18,1.64257E+18,1.64257E+18,1.64257E+18,16.8,367.7145,42.55,-0.0277,-0.0117,0.0831,0.2319,-0.055,-10.3933,17.9241,63.9208,43.0741,-0.0761,-0.0154,0.2859,-0.0278,-0.0103,0.079,0,0,0,0,0,0,0,0,0,0,0,0,0,0,0,0,0,0,0,0,0,0,0,0,0,0,0,0,0,0,0,0,0,0,0,0,0,0,0,0,0,0,-0.05,0.0756,0,0,0.6085,0,0,0,0,0,0,0,0.2859,0,0,0,0,0,0,0,0,0,0,0,0,0,0,0.0756,0,0,0,0,-0.05,0.0253,0.0253,0.1427,0.1427,1,3,1.64257E+18,1.64257E+18,1.64257E+18,1.64257E+18,1.64257E+18,1.64257E+18,1.64257E+18,1.64257E+18,1.64257E+18,1.64257E+18,0
10,1.64257E+18,1.64257E+18,1.64257E+18,1.64257E+18,16.8,367.729,42.55,-0.0298,-0.0096,0.0852,0.2248,-0.0694,-10.3527,17.9241,63.9208,43.0741,-0.0761,-0.0153,0.2863,-0.0285,-0.0101,0.0811,0,0,0,0,0,0,0,0,0,0,0,0,0,0,0,0,0,0,0,0,0,0,0,0,0,0,0,0,0,0,0,0,0,0,0,0,0,0,0,0,0,0,-0.05,0.0729,0,0,0.609,0,0,0,0,0,0,0,0.2863,0,0,0,0,0,0,0,0,0,0,0,0,0,0,0.0729,0,0,0,0,-0.05,0.028,0.028,0.1406,0.1406,1,3,1.64257E+18,1.64257E+18,1.64257E+18,1.64257E+18,1.64257E+18,1.64257E+18,1.64257E+18,1.64257E+18,1.64257E+18,1.64257E+18,0
11,1.64257E+18,1.64257E+18,1.64257E+18,1.64257E+18,16.8,367.729,42.55,-0.0288,-0.0085,0.082,0.208,-0.0694,-10.4147,18.9889,63.5647,41.7012,-0.0762,-0.0153,0.2868,-0.0286,-0.0096,0.0814,0,0,0,0,0,0,0,0,0,0,0,0,0,0,0,0,0,0,0,0,0,0,0,0,0,0,0,0,0,0,0,0,0,0,0,0,0,0,0,0,0,0,-0.05,0.0707,0,0,0.6094,0,0,0,0,0,0,0,0.2868,0,0,0,0,0,0,0,0,0,0,0,0,0,0,0.0707,0,0,0,0,-0.05,0.0303,0.0303,0.1388,0.1388,1,3,1.64257E+18,1.64257E+18,1.64257E+18,1.64257E+18,1.64257E+18,1.64257E+18,1.64257E+18,1.64257E+18,1.64257E+18,1.64257E+18,0
12,1.64257E+18,1.64257E+18,1.64257E+18,1.64257E+18,16.8,367.729,42.55,-0.0298,-0.0107,0.0852,0.2391,-0.0694,-10.4767,18.9889,63.5647,41.7012,-0.0762,-0.0153,0.2872,-0.029,-0.0099,0.0827,0,0,0,0,0,0,0,0,0,0,0,0,0,0,0,0,0,0,0,0,0,0,0,0,0,0,0,0,0,0,0,0,0,0,0,0,0,0,0,0,0,0,-0.05,0.0694,0,0,0.6099,0,0,0,0,0,0,0,0.2872,0,0,0,0,0,0,0,0,0,0,0,0,0,0,0.0694,0,0,0,0,-0.05,0.0316,0.0316,0.1378,0.1378,1,3,1.64257E+18,1.64257E+18,1.64257E+18,1.64257E+18,1.64257E+18,1.64257E+18,1.64257E+18,1.64257E+18,1.64257E+18,1.64257E+18,0
13,1.64257E+18,1.64257E+18,1.64257E+18,1.64257E+18,16.8,367.729,42.55,-0.0298,-0.0085,0.0842,0.2224,-0.0479,-10.4314,18.9889,63.5647,41.7012,-0.0763,-0.0153,0.2876,-0.0293,-0.0095,0.0832,0,0,0,0,0,0,0,0,0,0,0,0,0,0,0,0,0,0,0,0,0,0,0,0,0,0,0,0,0,0,0,0,0,0,0,0,0,0,0,0,0,0,-0.05,0.0855,0,0,0.6337,0,0,0,0,0,0.0029,-0.0029,0.2876,0,0,0,0,0,0,0,0,0,0,0,0,0,0,0.0855,0,0,0,0,-0.05,0.015,0.015,0.1506,0.1506,1,3,1.64257E+18,1.64257E+18,1.64257E+18,1.64257E+18,1.64257E+18,1.64257E+18,1.64257E+18,1.64257E+18,1.64257E+18,1.64257E+18,0
14,1.64257E+18,1.64257E+18,1.64257E+18,1.64257E+18,16.8,367.729,42.55,-0.0298,-0.0096,0.0874,0.2343,-0.0191,-10.4195,18.9889,63.5647,41.7012,-0.0764,-0.0152,0.288,-0.0295,-0.0095,0.0846,0,0,0,0,0,0,0,0,0,0,0,0,0,0,0,0,0,0,0,0,0,0,0,0,0,0,0,0,0,0,0,0,0,0,0,0,0,0,0,0,0,0,-0.05,0.0803,0,0,0.6342,0,0,0,0,0,0.0029,-0.0029,0.288,0,0,0,0,0,0,0,0,0,0,0,0,0,0,0.0803,0,0,0,0,-0.05,0.0204,0.0204,0.1464,0.1464,1,3,1.64257E+18,1.64257E+18,1.64257E+18,1.64257E+18,1.64257E+18,1.64257E+18,1.64257E+18,1.64257E+18,1.64257E+18,1.64257E+18,0
15,1.64257E+18,1.64257E+18,1.64257E+18,1.64257E+18,16.8,367.729,42.55,-0.0288,-0.0075,0.0884,0.2535,-0.0503,-10.41,18.2791,64.277,42.7308,-0.0764,-0.0152,0.2884,-0.0292,-0.0088,0.0858,0,0,0,0,0,0,0,0,0,0,0,0,0,0,0,0,0,0,0,0,0,0,0,0,0,0,0,0,0,0,0,0,0,0,0,0,0,0,0,0,0,0,-0.05,0.0764,0,0,0.6347,0,0,0,0,0,0.0029,-0.0029,0.2884,0,0,0,0,0,0,0,0,0,0,0,0,0,0,0.0764,0,0,0,0,-0.05,0.0244,0.0244,0.1433,0.1433,1,3,1.64257E+18,1.64257E+18,1.64257E+18,1.64257E+18,1.64257E+18,1.64257E+18,1.64257E+18,1.64257E+18,1.64257E+18,1.64257E+18,0
16,1.64257E+18,1.64257E+18,1.64257E+18,1.64257E+18,16.8,367.729,42.55,-0.0298,-0.0085,0.0895,0.208,-0.0838,-10.4147,18.2791,64.277,42.7308,-0.0765,-0.0152,0.2889,-0.0294,-0.0087,0.0871,0,0,0,0,0,0,0,0,0,0,0,0,0,0,0,0,0,0,0,0,0,0,0,0,0,0,0,0,0,0,0,0,0,0,0,0,0,0,0,0,0,0,-0.05,0.0741,0,0,0.6352,0,0,0,0,0,0.0029,-0.0029,0.2889,0,0,0,0,0,0,0,0,0,0,0,0,0,0,0.0741,0,0,0,0,-0.05,0.0268,0.0268,0.1415,0.1415,1,3,1.64257E+18,1.64257E+18,1.64257E+18,1.64257E+18,1.64257E+18,1.64257E+18,1.64257E+18,1.64257E+18,1.64257E+18,1.64257E+18,0
17,1.64257E+18,1.64257E+18,1.64257E+18,1.64257E+18,16.8,367.729,42.55,-0.0298,-0.0085,0.0927,0.2128,-0.0431,-10.4195,18.2791,64.277,42.7308,-0.0766,-0.0151,0.2893,-0.0296,-0.0087,0.0889,0,0,0,0,0,0,0,0,0,0,0,0,0,0,0,0,0,0,0,0,0,0,0,0,0,0,0,0,0,0,0,0,0,0,0,0,0,0,0,0,0,0,-0.05,0.0725,0,0,0.6357,0,0,0,0,0,0.0029,0,0.2893,0,0,0,0,0,0,0,0,0,0,0,0,0,0,0.0725,0,0,0,0,-0.05,0.0284,0.0284,0.1403,0.1403,1,3,1.64257E+18,1.64257E+18,1.64257E+18,1.64257E+18,1.64257E+18,1.64257E+18,1.64257E+18,1.64257E+18,1.64257E+18,1.64257E+18,0
18,1.64257E+18,1.64257E+18,1.64257E+18,1.64257E+18,16.8,367.729,42.55,-0.0298,-0.0075,0.0937,0.2128,-0.0574,-10.3956,18.2791,64.277,42.7308,-0.0766,-0.0151,0.2898,-0.0296,-0.0083,0.0905,0,0,0,0,0,0,0,0,0,0,0,0,0,0,0,0,0,0,0,0,0,0,0,0,0,0,0,0,0,0,0,0,0,0,0,0,0,0,0,0,0,0,-0.05,0.0715,0,0,0.6362,0,0,0,0,0,0.0029,0,0.2898,0,0,0,0,0,0,0,0,0,0,0,0,0,0,0.0715,0,0,0,0,-0.05,0.0295,0.0295,0.1394,0.1394,1,3,1.64257E+18,1.64257E+18,1.64257E+18,1.64257E+18,1.64257E+18,1.64257E+18,1.64257E+18,1.64257E+18,1.64257E+18,1.64257E+18,0
19,1.64257E+18,1.64257E+18,1.64257E+18,1.64257E+18,16.8,367.729,42.55,-0.0309,-0.0107,0.0959,0.1985,-0.0742,-10.4171,19.5213,63.7428,44.6186,-0.0767,-0.0151,0.2902,-0.0301,-0.0091,0.0923,0,0,0,0,0,0,0,0,0,0,0,0,0,0,0,0,0,0,0,0,0,0,0,0,0,0,0,0,0,0,0,0,0,0,0,0,0,0,0,0,0,0,-0.05,0.0711,0,0,0.6367,0,0,0,0,0,0.0029,0,0.2902,0,0,0,0,0,0,0,0,0,0,0,0,0,0,0.0711,0,0,0,0,-0.05,0.03,0.03,0.1391,0.1391,1,3,1.64257E+18,1.64257E+18,1.64257E+18,1.64257E+18,1.64257E+18,1.64257E+18,1.64257E+18,1.64257E+18,1.64257E+18,1.64257E+18,0
20,1.64257E+18,1.64257E+18,1.64257E+18,1.64257E+18,16.8,367.7438,42.55,-0.0298,-0.0107,0.0969,0.2224,-0.0407,-10.4648,19.5213,63.7428,44.6186,-0.0767,-0.015,0.2907,-0.03,-0.0096,0.0939,0,0,0,0,0,0,0,0,0,0,0,0,0,0,0,0,0,0,0,0,0,0,0,0,0,0,0,0,0,0,0,0,0,0,0,0,0,0,0,0,0,0,-0.05,0.0704,0,0,0.6372,0,0,0,0,0,0.0029,0,0.2907,0,0,0,0,0,0,0,0,0,0,0,0,0,0,0.0704,0,0,0,0,-0.05,0.0306,0.0306,0.1386,0.1386,1,3,1.64257E+18,1.64257E+18,1.64257E+18,1.64257E+18,1.64257E+18,1.64257E+18,1.64257E+18,1.64257E+18,1.64257E+18,1.64257E+18,0
21,1.64257E+18,1.64257E+18,1.64257E+18,1.64257E+18,16.8,367.7438,42.55,-0.0298,-0.0107,0.0948,0.2487,-0.0694,-10.4672,19.5213,63.7428,44.6186,-0.0768,-0.015,0.2912,-0.0299,-0.0099,0.0942,0,0,0,0,0,0,0,0,0,0,0,0,0,0,0,0,0,0,0,0,0,0,0,0,0,0,0,0,0,0,0,0,0,0,0,0,0,0,0,0,0,0,-0.05,0.07,0,0,0.6377,0,0,0,0,0,0.0029,0,0.2912,0,0,0,0,0,0,0,0,0,0,0,0,0,0,0.07,0,0,0,0,-0.05,0.031,0.031,0.1383,0.1383,1,3,1.64257E+18,1.64257E+18,1.64257E+18,1.64257E+18,1.64257E+18,1.64257E+18,1.64257E+18,1.64257E+18,1.64257E+18,1.64257E+18,0
22,1.64257E+18,1.64257E+18,1.64257E+18,1.64257E+18,16.8,367.7438,42.55,-0.0309,-0.0085,0.098,0.1913,-0.0574,-10.4386,19.5213,63.7428,44.6186,-0.0769,-0.015,0.2917,-0.0303,-0.0095,0.0955,0,0,0,0,0,0,0,0,0,0,0,0,0,0,0,0,0,0,0,0,0,0,0,0,0,0,0,0,0,0,0,0,0,0,0,0,0,0,0,0,0,0,-0.05,0.0701,0,0,0.6383,0,0,0,0,0,0.0029,0,0.2917,0,0,0,0,0,0,0,0,0,0,0,0,0,0,0.0701,0,0,0,0,-0.05,0.0309,0.0309,0.1383,0.1383,1,3,1.64257E+18,1.64257E+18,1.64257E+18,1.64257E+18,1.64257E+18,1.64257E+18,1.64257E+18,1.64257E+18,1.64257E+18,1.64257E+18,0
23,1.64257E+18,1.64257E+18,1.64257E+18,1.64257E+18,16.8,367.7438,42.55,-0.0266,-0.0075,0.1012,0.2104,-0.0263,-10.398,21.651,64.8111,43.5889,-0.0769,-0.0149,0.2922,-0.029,-0.0088,0.0974,0,0,0,0,0,0,0,0,0,0,0,0,0,0,0,0,0,0,0,0,0,0,0,0,0,0,0,0,0,0,0,0,0,0,0,0,0,0,0,0,0,0,-0.05,0.069,0,0,0.6386,0,0,0,0,0,0.0029,0,0.2922,0,0,0,0,0,0,0,0,0,0,0,0,0,0,0.069,0,0,0,0,-0.05,0.0321,0.0321,0.1374,0.1374,1,3,1.64257E+18,1.64257E+18,1.64257E+18,1.64257E+18,1.64257E+18,1.64257E+18,1.64257E+18,1.64257E+18,1.64257E+18,1.64257E+18,0
24,1.64257E+18,1.64257E+18,1.64257E+18,1.64257E+18,16.8,367.7438,42.55,-0.0309,-0.0096,0.1001,0.2272,-0.0263,-10.4123,21.651,64.8111,43.5889,-0.077,-0.0149,0.2927,-0.0297,-0.0091,0.0983,0,0,0,0,0,0,0,0,0,0,0,0,0,0,0,0,0,0,0,0,0,0,0,0,0,0,0,0,0,0,0,0,0,0,0,0,0,0,0,0,0,0,-0.05,0.0697,0,0,0.6392,0,0,0,0,0,0.0029,0,0.2927,0,0,0,0,0,0,0,0,0,0,0,0,0,0,0.0697,0,0,0,0,-0.05,0.0314,0.0314,0.138,0.138,1,3,1.64257E+18,1.64257E+18,1.64257E+18,1.64257E+18,1.64257E+18,1.64257E+18,1.64257E+18,1.64257E+18,1.64257E+18,1.64257E+18,0
25,1.64257E+18,1.64257E+18,1.64257E+18,1.64257E+18,16.8,367.7438,42.55,-0.0298,-0.0117,0.1023,0.2319,-0.0838,-10.4672,21.651,64.8111,43.5889,-0.0771,-0.0149,0.2932,-0.0297,-0.0099,0.0996,0,0,0,0,0,0,0,0,0,0,0,0,0,0,0,0,0,0,0,0,0,0,0,0,0,0,0,0,0,0,0,0,0,0,0,0,0,0,0,0,0,0,-0.05,0.0698,0,0,0.6397,0,0,0,0,0,0.0029,0,0.2932,0,0,0,0,0,0,0,0,0,0,0,0,0,0,0.0698,0,0,0,0,-0.05,0.0313,0.0313,0.1381,0.1381,1,3,1.64257E+18,1.64257E+18,1.64257E+18,1.64257E+18,1.64257E+18,1.64257E+18,1.64257E+18,1.64257E+18,1.64257E+18,1.64257E+18,0
26,1.64257E+18,1.64257E+18,1.64257E+18,1.64257E+18,16.8,367.7438,42.55,-0.0298,-0.0085,0.1033,0.1817,-0.0431,-10.4386,21.651,64.8111,43.5889,-0.0771,-0.0148,0.2937,-0.0298,-0.0095,0.1009,0,0,0,0,0,0,0,0,0,0,0,0,0,0,0,0,0,0,0,0,0,0,0,0,0,0,0,0,0,0,0,0,0,0,0,0,0,0,0,0,0,0,-0.05,0.0698,0,0,0.6402,0,0,0,0,0,0.0029,0,0.2937,0,0,0,0,0,0,0,0,0,0,0,0,0,0,0.0698,0,0,0,0,-0.05,0.0312,0.0312,0.1381,0.1381,1,3,1.64257E+18,1.64257E+18,1.64257E+18,1.64257E+18,1.64257E+18,1.64257E+18,1.64257E+18,1.64257E+18,1.64257E+18,1.64257E+18,0
27,1.64257E+18,1.64257E+18,1.64257E+18,1.64257E+18,16.8,367.7438,42.55,-0.0309,-0.0085,0.1055,0.2272,-0.0383,-10.4839,19.1664,65.1672,43.9321,-0.0772,-0.0148,0.2942,-0.0301,-0.0092,0.1024,0,0,0,0,0,0,0,0,0,0,0,0,0,0,0,0,0,0,0,0,0,0,0,0,0,0,0,0,0,0,0,0,0,0,0,0,0,0,0,0,0,0,-0.05,0.0702,0,0,0.6408,0,0,0,0,0,0.0029,0,0.2942,0,0,0,0,0,0,0,0,0,0,0,0,0,0,0.0702,0,0,0,0,-0.05,0.0309,0.0309,0.1384,0.1384,1,3,1.64257E+18,1.64257E+18,1.64257E+18,1.64257E+18,1.64257E+18,1.64257E+18,1.64257E+18,1.64257E+18,1.64257E+18,1.64257E+18,0
28,1.64257E+18,1.64257E+18,1.64257E+18,1.64257E+18,16.8,367.7438,42.55,-0.0266,-0.0096,0.1044,0.2367,-0.0072,-10.398,19.1664,65.1672,43.9321,-0.0772,-0.0148,0.2947,-0.029,-0.0093,0.1031,0,0,0,0,0,0,0,0,0,0,0,0,0,0,0,0,0,0,0,0,0,0,0,0,0,0,0,0,0,0,0,0,0,0,0,0,0,0,0,0,0,0,-0.05,0.0692,0,0,0.6411,0,0,0,0,0,0.0029,0,0.2947,0,0,0,0,0,0,0,0,0,0,0,0,0,0,0.0692,0,0,0,0,-0.05,0.0318,0.0318,0.1377,0.1377,1,3,1.64257E+18,1.64257E+18,1.64257E+18,1.64257E+18,1.64257E+18,1.64257E+18,1.64257E+18,1.64257E+18,1.64257E+18,1.64257E+18,0
29,1.64257E+18,1.64257E+18,1.64257E+18,1.64257E+18,16.8,367.7438,42.55,-0.0288,-0.0085,0.1076,0.2033,-0.0503,-10.5149,19.1664,65.1672,43.9321,-0.0773,-0.0147,0.2952,-0.0289,-0.009,0.1046,0,0,0,0,0,0,0,0,0,0,0,0,0,0,0,0,0,0,0,0,0,0,0,0,0,0,0,0,0,0,0,0,0,0,0,0,0,0,0,0,0,0,-0.05,0.0695,0,0,0.6416,0,0,0,0,0,0.0029,0,0.2952,0,0,0,0,0,0,0,0,0,0,0,0,0,0,0.0695,0,0,0,0,-0.05,0.0316,0.0316,0.1378,0.1378,1,3,1.64257E+18,1.64257E+18,1.64257E+18,1.64257E+18,1.64257E+18,1.64257E+18,1.64257E+18,1.64257E+18,1.64257E+18,1.64257E+18,0
30,1.64257E+18,1.64257E+18,1.64257E+18,1.64257E+18,16.8,367.7438,42.55,-0.0298,-0.0064,0.1076,0.2056,-0.0694,-10.5101,19.1664,65.1672,43.9321,-0.0774,-0.0147,0.2958,-0.0292,-0.0082,0.1056,0,0,0,0,0,0,0,0,0,0,0,0,0,0,0,0,0,0,0,0,0,0,0,0,0,0,0,0,0,0,0,0,0,0,0,0,0,0,0,0,0,0,-0.05,0.053,0,0,0.6189,0,0,0,0,0,0,0,0.2958,0,0,0,0,0,0,0,0,0,0,0,0,0,0,0.053,0,0,0,0,-0.05,0.0486,0.0486,0.1251,0.1251,1,3,1.64257E+18,1.64257E+18,1.64257E+18,1.64257E+18,1.64257E+18,1.64257E+18,1.64257E+18,1.64257E+18,1.64257E+18,1.64257E+18,0
31,1.64257E+18,1.64257E+18,1.64257E+18,1.64257E+18,16.8,367.7438,42.55,-0.0298,-0.0064,0.1087,0.275,-0.0814,-10.3956,18.9889,64.6331,44.1037,-0.0774,-0.0146,0.2963,-0.0294,-0.0076,0.1066,0,0,0,0,0,0,0,0,0,0,0,0,0,0,0,0,0,0,0,0,0,0,0,0,0,0,0,0,0,0,0,0,0,0,0,0,0,0,0,0,0,0,-0.05,0.0579,0,0,0.6194,0,0,0,0,0,0,0,0.2963,0,0,0,0,0,0,0,0,0,0,0,0,0,0,0.0579,0,0,0,0,-0.05,0.0436,0.0436,0.1286,0.1286,1,3,1.64257E+18,1.64257E+18,1.64257E+18,1.64257E+18,1.64257E+18,1.64257E+18,1.64257E+18,1.64257E+18,1.64257E+18,1.64257E+18,0
32,1.64257E+18,1.64257E+18,1.64257E+18,1.64257E+18,16.8,367.7438,42.55,-0.032,-0.0107,0.1076,0.2439,-0.0574,-10.379,18.9889,64.6331,44.1037,-0.0775,-0.0146,0.2968,-0.0303,-0.0086,0.1069,0,0,0,0,0,0,0,0,0,0,0,0,0,0,0,0,0,0,0,0,0,0,0,0,0,0,0,0,0,0,0,0,0,0,0,0,0,0,0,0,0,0,-0.05,0.0618,0,0,0.6199,0,0,0,0,0,0,0,0.2968,0,0,0,0,0,0,0,0,0,0,0,0,0,0,0.0618,0,0,0,0,-0.05,0.0395,0.0395,0.1317,0.1317,1,3,1.64257E+18,1.64257E+18,1.64257E+18,1.64257E+18,1.64257E+18,1.64257E+18,1.64257E+18,1.64257E+18,1.64257E+18,1.64257E+18,0
33,1.64257E+18,1.64257E+18,1.64257E+18,1.64257E+18,16.8,367.7438,42.55,-0.0298,-0.0085,0.1087,0.2224,-0.0191,-10.3718,18.9889,64.6331,44.1037,-0.0776,-0.0145,0.2974,-0.0301,-0.0086,0.1075,0,0,0,0,0,0,0,0,0,0,0,0,0,0,0,0,0,0,0,0,0,0,0,0,0,0,0,0,0,0,0,0,0,0,0,0,0,0,0,0,0,0,-0.05,0.0638,0,0,0.6205,0,0,0,0,0,0,0,0.2974,0,0,0,0,0,0,0,0,0,0,0,0,0,0,0.0638,0,0,0,0,-0.05,0.0375,0.0375,0.1333,0.1333,1,3,1.64257E+18,1.64257E+18,1.64257E+18,1.64257E+18,1.64257E+18,1.64257E+18,1.64257E+18,1.64257E+18,1.64257E+18,1.64257E+18,0
34,1.64257E+18,1.64257E+18,1.64257E+18,1.64257E+18,16.8,367.7438,42.55,-0.0309,-0.0096,0.1119,0.2559,-0.0646,-10.4243,18.9889,64.6331,44.1037,-0.0776,-0.0145,0.2979,-0.0304,-0.0089,0.109,0,0,0,0,0,0,0,0,0,0,0,0,0,0,0,0,0,0,0,0,0,0,0,0,0,0,0,0,0,0,0,0,0,0,0,0,0,0,0,0,0,0,-0.05,0.0655,0,0,0.621,0,0,0,0,0,0,0,0.2979,0,0,0,0,0,0,0,0,0,0,0,0,0,0,0.0655,0,0,0,0,-0.05,0.0357,0.0357,0.1347,0.1347,1,3,1.64257E+18,1.64257E+18,1.64257E+18,1.64257E+18,1.64257E+18,1.64257E+18,1.64257E+18,1.64257E+18,1.64257E+18,1.64257E+18,0
35,1.64257E+18,1.64257E+18,1.64257E+18,1.64257E+18,16.8,367.7438,42.55,-0.033,-0.0085,0.1108,0.22,-0.0526,-10.4481,17.2143,63.5647,44.7902,-0.0777,-0.0145,0.2984,-0.0313,-0.0088,0.1096,0,0,0,0,0,0,0,0,0,0,0,0,0,0,0,0,0,0,0,0,0,0,0,0,0,0,0,0,0,0,0,0,0,0,0,0,0,0,0,0,0,0,-0.05,0.0842,0,0,0.6449,0,0,0,0,0,0.0029,0,0.2984,0,0,0,0,0,0,0,0,0,0,0,0,0,0,0.0842,0,0,0,0,-0.05,0.0164,0.0164,0.1495,0.1495,1,3,1.64257E+18,1.64257E+18,1.64257E+18,1.64257E+18,1.64257E+18,1.64257E+18,1.64257E+18,1.64257E+18,1.64257E+18,1.64257E+18,0
36,1.64257E+18,1.64257E+18,1.64257E+18,1.64257E+18,16.8,367.7438,42.55,-0.0309,-0.0085,0.115,0.2009,-0.055,-10.4266,17.2143,63.5647,44.7902,-0.0778,-0.0144,0.299,-0.0311,-0.0087,0.1114,0,0,0,0,0,0,0,0,0,0,0,0,0,0,0,0,0,0,0,0,0,0,0,0,0,0,0,0,0,0,0,0,0,0,0,0,0,0,0,0,0,0,-0.05,0.0801,0,0,0.6455,0,0,0,0,0,0.0029,0,0.299,0,0,0,0,0,0,0,0,0,0,0,0,0,0,0.0801,0,0,0,0,-0.05,0.0206,0.0206,0.1462,0.1462,1,3,1.64257E+18,1.64257E+18,1.64257E+18,1.64257E+18,1.64257E+18,1.64257E+18,1.64257E+18,1.64257E+18,1.64257E+18,1.64257E+18,0
37,1.64257E+18,1.64257E+18,1.64257E+18,1.64257E+18,16.8,367.7438,42.55,-0.033,-0.0096,0.1129,0.2343,-0.0311,-10.4171,17.2143,63.5647,44.7902,-0.0779,-0.0144,0.2995,-0.0318,-0.009,0.1119,0,0,0,0,0,0,0,0,0,0,0,0,0,0,0,0,0,0,0,0,0,0,0,0,0,0,0,0,0,0,0,0,0,0,0,0,0,0,0,0,0,0,-0.05,0.0779,0,0,0.6461,0,0,0,0,0,0.0029,0,0.2995,0,0,0,0,0,0,0,0,0,0,0,0,0,0,0.0779,0,0,0,0,-0.05,0.0229,0.0229,0.1445,0.1445,1,3,1.64257E+18,1.64257E+18,1.64257E+18,1.64257E+18,1.64257E+18,1.64257E+18,1.64257E+18,1.64257E+18,1.64257E+18,1.64257E+18,0
38,1.64257E+18,1.64257E+18,1.64257E+18,1.64257E+18,16.8,367.7438,42.55,-0.0288,-0.0075,0.115,0.2391,-0.0455,-10.3837,17.2143,63.5647,44.7902,-0.0779,-0.0143,0.3001,-0.0308,-0.0085,0.113,0,0,0,0,0,0,0,0,0,0,0,0,0,0,0,0,0,0,0,0,0,0,0,0,0,0,0,0,0,0,0,0,0,0,0,0,0,0,0,0,0,0,-0.05,0.0751,0,0,0.6466,0,0,0,0,0,0.0029,0,0.3001,0,0,0,0,0,0,0,0,0,0,0,0,0,0,0.0751,0,0,0,0,-0.05,0.0257,0.0257,0.1423,0.1423,1,3,1.64257E+18,1.64257E+18,1.64257E+18,1.64257E+18,1.64257E+18,1.64257E+18,1.64257E+18,1.64257E+18,1.64257E+18,1.64257E+18,0
39,1.64257E+18,1.64257E+18,1.64257E+18,1.64257E+18,16.8,367.7438,42.55,-0.0298,-0.0096,0.1161,0.2272,-0.0503,-10.5196,19.3439,61.7842,44.1037,-0.078,-0.0143,0.3007,-0.0305,-0.0088,0.114,0,0,0,0,0,0,0,0,0,0,0,0,0,0,0,0,0,0,0,0,0,0,0,0,0,0,0,0,0,0,0,0,0,0,0,0,0,0,0,0,0,0,-0.05,0.0738,0,0,0.6471,0,0,0,0,0,0.0029,0,0.3007,0,0,0,0,0,0,0,0,0,0,0,0,0,0,0.0738,0,0,0,0,-0.05,0.0271,0.0271,0.1413,0.1413,1,3,1.64257E+18,1.64257E+18,1.64257E+18,1.64257E+18,1.64257E+18,1.64257E+18,1.64257E+18,1.64257E+18,1.64257E+18,1.64257E+18,0
40,1.64257E+18,1.64257E+18,1.64257E+18,1.64257E+18,16.8,367.7438,42.55,-0.0309,-0.0085,0.115,0.2056,-0.0503,-10.4338,19.3439,61.7842,44.1037,-0.078,-0.0143,0.3012,-0.0306,-0.0087,0.1144,0,0,0,0,0,0,0,0,0,0,0,0,0,0,0,0,0,0,0,0,0,0,0,0,0,0,0,0,0,0,0,0,0,0,0,0,0,0,0,0,0,0,-0.05,0.0732,0,0,0.6476,0,0,0,0,0,0.0029,0,0.3012,0,0,0,0,0,0,0,0,0,0,0,0,0,0,0.0732,0,0,0,0,-0.05,0.0277,0.0277,0.1408,0.1408,1,3,1.64257E+18,1.64257E+18,1.64257E+18,1.64257E+18,1.64257E+18,1.64257E+18,1.64257E+18,1.64257E+18,1.64257E+18,1.64257E+18,0
41,1.64257E+18,1.64257E+18,1.64257E+18,1.64257E+18,16.8,367.7438,42.55,-0.0288,-0.0085,0.1182,0.2391,-0.0311,-10.4433,19.3439,61.7842,44.1037,-0.0781,-0.0142,0.3018,-0.03,-0.0087,0.1157,0,0,0,0,0,0,0,0,0,0,0,0,0,0,0,0,0,0,0,0,0,0,0,0,0,0,0,0,0,0,0,0,0,0,0,0,0,0,0,0,0,0,-0.05,0.0723,0,0,0.6481,0,0,0,0,0,0.0029,0,0.3018,0,0,0,0,0,0,0,0,0,0,0,0,0,0,0.0723,0,0,0,0,-0.05,0.0287,0.0287,0.1401,0.1401,1,3,1.64257E+18,1.64257E+18,1.64257E+18,1.64257E+18,1.64257E+18,1.64257E+18,1.64257E+18,1.64257E+18,1.64257E+18,1.64257E+18,0
42,1.64257E+18,1.64257E+18,1.64257E+18,1.64257E+18,16.8,367.7438,42.55,-0.033,-0.0075,0.1172,0.2296,-0.055,-10.4481,19.3439,61.7842,44.1037,-0.0782,-0.0142,0.3024,-0.031,-0.0083,0.1162,0,0,0,0,0,0,0,0,0,0,0,0,0,0,0,0,0,0,0,0,0,0,0,0,0,0,0,0,0,0,0,0,0,0,0,0,0,0,0,0,0,0,-0.05,0.073,0,0,0.6487,0,0,0,0,0,0.0029,0,0.3024,0,0,0,0,0,0,0,0,0,0,0,0,0,0,0.073,0,0,0,0,-0.05,0.0279,0.0279,0.1406,0.1406,1,3,1.64257E+18,1.64257E+18,1.64257E+18,1.64257E+18,1.64257E+18,1.64257E+18,1.64257E+18,1.64257E+18,1.64257E+18,1.64257E+18,0
43,1.64257E+18,1.64257E+18,1.64257E+18,1.64257E+18,16.8,367.7438,42.55,-0.0309,-0.0075,0.1182,0.2319,-0.0191,-10.4386,19.6988,65.3453,45.4766,-0.0783,-0.0141,0.303,-0.031,-0.008,0.1169,0,0,0,0,0,0,0,0,0,0,0,0,0,0,0,0,0,0,0,0,0,0,0,0,0,0,0,0,0,0,0,0,0,0,0,0,0,0,0,0,0,0,-0.05,0.0558,0,0,0.626,0,0,0,0,0,0,0,0.303,0,0,0,0,0,0,0,0,0,0,0,0,0,0,0.0558,0,0,0,0,-0.05,0.0458,0.0458,0.127,0.127,1,3,1.64257E+18,1.64257E+18,1.64257E+18,1.64257E+18,1.64257E+18,1.64257E+18,1.64257E+18,1.64257E+18,1.64257E+18,1.64257E+18,0
44,1.64257E+18,1.64257E+18,1.64257E+18,1.64257E+18,16.8,367.7438,42.55,-0.0309,-0.0064,0.1182,0.2128,-0.055,-10.4815,19.6988,65.3453,45.4766,-0.0783,-0.0141,0.3035,-0.0309,-0.0075,0.1173,0,0,0,0,0,0,0,0,0,0,0,0,0,0,0,0,0,0,0,0,0,0,0,0,0,0,0,0,0,0,0,0,0,0,0,0,0,0,0,0,0,0,-0.05,0.0602,0,0,0.6266,0,0,0,0,0,0,0,0.3035,0,0,0,0,0,0,0,0,0,0,0,0,0,0,0.0602,0,0,0,0,-0.05,0.0412,0.0412,0.1305,0.1305,1,3,1.64257E+18,1.64257E+18,1.64257E+18,1.64257E+18,1.64257E+18,1.64257E+18,1.64257E+18,1.64257E+18,1.64257E+18,1.64257E+18,0
45,1.64257E+18,1.64257E+18,1.64257E+18,1.64257E+18,16.8,367.7438,42.55,-0.032,-0.0096,0.1204,0.2224,-0.0407,-10.41,19.6988,65.3453,45.4766,-0.0784,-0.014,0.3041,-0.0313,-0.0082,0.1183,0,0,0,0,0,0,0,0,0,0,0,0,0,0,0,0,0,0,0,0,0,0,0,0,0,0,0,0,0,0,0,0,0,0,0,0,0,0,0,0,0,0,-0.05,0.0636,0,0,0.6272,0,0,0,0,0,0,0,0.3041,0,0,0,0,0,0,0,0,0,0,0,0,0,0,0.0636,0,0,0,0,-0.05,0.0377,0.0377,0.1332,0.1332,1,3,1.64257E+18,1.64257E+18,1.64257E+18,1.64257E+18,1.64257E+18,1.64257E+18,1.64257E+18,1.64257E+18,1.64257E+18,1.64257E+18,0
46,1.64257E+18,1.64257E+18,1.64257E+18,1.64257E+18,16.8,367.7438,42.55,-0.0309,-0.0075,0.1204,0.2033,-0.0479,-10.3623,19.6988,65.3453,45.4766,-0.0785,-0.014,0.3047,-0.0312,-0.0079,0.119,0,0,0,0,0,0,0,0,0,0,0,0,0,0,0,0,0,0,0,0,0,0,0,0,0,0,0,0,0,0,0,0,0,0,0,0,0,0,0,0,0,0,-0.05,0.0656,0,0,0.6277,0,0,0,0,0,0,0,0.3047,0,0,0,0,0,0,0,0,0,0,0,0,0,0,0.0656,0,0,0,0,-0.05,0.0356,0.0356,0.1347,0.1347,1,3,1.64257E+18,1.64257E+18,1.64257E+18,1.64257E+18,1.64257E+18,1.64257E+18,1.64257E+18,1.64257E+18,1.64257E+18,1.64257E+18,0
47,1.64257E+18,1.64257E+18,1.64257E+18,1.64257E+18,16.8,367.7438,42.55,-0.0288,-0.0075,0.1193,0.2056,-0.0168,-10.3837,19.8763,64.8111,43.2457,-0.0785,-0.0139,0.3053,-0.0304,-0.0078,0.1191,0,0,0,0,0,0,0,0,0,0,0,0,0,0,0,0,0,0,0,0,0,0,0,0,0,0,0,0,0,0,0,0,0,0,0,0,0,0,0,0,0,0,-0.05,0.0664,0,0,0.6282,0,0,0,0,0,0,0,0.3053,0,0,0,0,0,0,0,0,0,0,0,0,0,0,0.0664,0,0,0,0,-0.05,0.0347,0.0347,0.1354,0.1354,1,3,1.64257E+18,1.64257E+18,1.64257E+18,1.64257E+18,1.64257E+18,1.64257E+18,1.64257E+18,1.64257E+18,1.64257E+18,1.64257E+18,0
48,1.64257E+18,1.64257E+18,1.64257E+18,1.64257E+18,16.8,367.7438,42.55,-0.0309,-0.0085,0.1214,0.2319,0,-10.4505,19.8763,64.8111,43.2457,-0.0786,-0.0139,0.3059,-0.0305,-0.008,0.1199,0,0,0,0,0,0,0,0,0,0,0,0,0,0,0,0,0,0,0,0,0,0,0,0,0,0,0,0,0,0,0,0,0,0,0,0,0,0,0,0,0,0,-0.05,0.0848,0,0,0.652,0,0,0,0,0,0.0029,0,0.3059,0,0,0,0,0,0,0,0,0,0,0,0,0,0,0.0848,0,0,0,0,-0.05,0.0158,0.0158,0.15,0.15,1,3,1.64257E+18,1.64257E+18,1.64257E+18,1.64257E+18,1.64257E+18,1.64257E+18,1.64257E+18,1.64257E+18,1.64257E+18,1.64257E+18,0
49,1.64257E+18,1.64257E+18,1.64257E+18,1.64257E+18,16.8,367.7438,42.55,-0.0288,-0.0107,0.1193,0.2056,0.0239,-10.4195,19.8763,64.8111,43.2457,-0.0787,-0.0138,0.3065,-0.0299,-0.0089,0.1197,0,0,0,0,0,0,0,0,0,0,0,0,0,0,0,0,0,0,0,0,0,0,0,0,0,0,0,0,0,0,0,0,0,0,0,0,0,0,0,0,0,0,-0.05,0.0805,0,0,0.6525,0,0,0,0,0,0.0029,0,0.3065,0,0,0,0,0,0,0,0,0,0,0,0,0,0,0.0805,0,0,0,0,-0.05,0.0201,0.0201,0.1466,0.1466,1,3,1.64257E+18,1.64257E+18,1.64257E+18,1.64257E+18,1.64257E+18,1.64257E+18,1.64257E+18,1.64257E+18,1.64257E+18,1.64257E+18,0
50,1.64257E+18,1.64257E+18,1.64257E+18,1.64257E+18,16.8,367.6842,42.55,-0.0298,-0.0085,0.1204,0.1937,-0.0455,-10.4219,19.8763,64.8111,43.2457,-0.0787,-0.0138,0.3071,-0.0299,-0.0088,0.1199,0,0,0,0,0,0,0,0,0,0,0,0,0,0,0,0,0,0,0,0,0,0,0,0,0,0,0,0,0,0,0,0,0,0,0,0,0,0,0,0,0,0,-0.05,0.0781,0,0,0.6531,0,0,0,0,0,0.0029,0,0.3071,0,0,0,0,0,0,0,0,0,0,0,0,0,0,0.0781,0,0,0,0,-0.05,0.0226,0.0226,0.1447,0.1447,1,3,1.64257E+18,1.64257E+18,1.64257E+18,1.64257E+18,1.64257E+18,1.64257E+18,1.64257E+18,1.64257E+18,1.64257E+18,1.64257E+18,0
51,1.64257E+18,1.64257E+18,1.64257E+18,1.64257E+18,16.8,367.6842,42.55,-0.033,-0.0085,0.1246,0.2654,-0.0168,-10.429,19.3439,63.9208,44.1037,-0.0788,-0.0138,0.3077,-0.0309,-0.0087,0.1215,0,0,0,0,0,0,0,0,0,0,0,0,0,0,0,0,0,0,0,0,0,0,0,0,0,0,0,0,0,0,0,0,0,0,0,0,0,0,0,0,0,0,-0.05,0.0773,0,0,0.6537,0,0,0,0,0,0.0029,0,0.3077,0,0,0,0,0,0,0,0,0,0,0,0,0,0,0.0773,0,0,0,0,-0.05,0.0234,0.0234,0.1441,0.1441,1,3,1.64257E+18,1.64257E+18,1.64257E+18,1.64257E+18,1.64257E+18,1.64257E+18,1.64257E+18,1.64257E+18,1.64257E+18,1.64257E+18,0
52,1.64257E+18,1.64257E+18,1.64257E+18,1.64257E+18,16.8,367.6842,42.55,-0.032,-0.0085,0.1214,0.22,-0.0431,-10.5053,19.3439,63.9208,44.1037,-0.0789,-0.0137,0.3083,-0.0313,-0.0086,0.1215,0,0,0,0,0,0,0,0,0,0,0,0,0,0,0,0,0,0,0,0,0,0,0,0,0,0,0,0,0,0,0,0,0,0,0,0,0,0,0,0,0,0,-0.05,0.0764,0,0,0.6543,0,0,0,0,0,0.0029,-0.0029,0.3083,0,0,0,0,0,0,0,0,0,0,0,0,0,0,0.0764,0,0,0,0,-0.05,0.0245,0.0245,0.1433,0.1433,1,3,1.64257E+18,1.64257E+18,1.64257E+18,1.64257E+18,1.64257E+18,1.64257E+18,1.64257E+18,1.64257E+18,1.64257E+18,1.64257E+18,0
53,1.64257E+18,1.64257E+18,1.64257E+18,1.64257E+18,16.8,367.6842,42.55,-0.0309,-0.0096,0.1246,0.2009,-0.0574,-10.4386,19.3439,63.9208,44.1037,-0.0789,-0.0137,0.3089,-0.0312,-0.009,0.1225,0,0,0,0,0,0,0,0,0,0,0,0,0,0,0,0,0,0,0,0,0,0,0,0,0,0,0,0,0,0,0,0,0,0,0,0,0,0,0,0,0,0,-0.05,0.0753,0,0,0.6549,0,0,0,0,0,0.0029,-0.0029,0.3089,0,0,0,0,0,0,0,0,0,0,0,0,0,0,0.0753,0,0,0,0,-0.05,0.0255,0.0255,0.1425,0.1425,1,3,1.64257E+18,1.64257E+18,1.64257E+18,1.64257E+18,1.64257E+18,1.64257E+18,1.64257E+18,1.64257E+18,1.64257E+18,1.64257E+18,0
54,1.64257E+18,1.64257E+18,1.64257E+18,1.64257E+18,16.8,367.6842,42.55,-0.0341,-0.0107,0.1246,0.2487,-0.0431,-10.4386,19.3439,63.9208,44.1037,-0.079,-0.0136,0.3095,-0.0321,-0.0095,0.1232,0,0,0,0,0,0,0,0,0,0,0,0,0,0,0,0,0,0,0,0,0,0,0,0,0,0,0,0,0,0,0,0,0,0,0,0,0,0,0,0,0,0,-0.05,0.0756,0,0,0.6555,0,0,0,0,0,0.0029,-0.0029,0.3095,0,0,0,0,0,0,0,0,0,0,0,0,0,0,0.0756,0,0,0,0,-0.05,0.0253,0.0253,0.1427,0.1427,1,3,1.64257E+18,1.64257E+18,1.64257E+18,1.64257E+18,1.64257E+18,1.64257E+18,1.64257E+18,1.64257E+18,1.64257E+18,1.64257E+18,0
55,1.64257E+18,1.64257E+18,1.64257E+18,1.64257E+18,16.8,367.6842,42.55,-0.0298,-0.0096,0.1246,0.208,-0.0239,-10.3623,20.4087,64.277,42.3876,-0.0791,-0.0136,0.3101,-0.0314,-0.0095,0.1237,0,0,0,0,0,0,0,0,0,0,0,0,0,0,0,0,0,0,0,0,0,0,0,0,0,0,0,0,0,0,0,0,0,0,0,0,0,0,0,0,0,0,-0.05,0.0744,0,0,0.656,0,0,0,0,0,0.0029,-0.0029,0.3101,0,0,0,0,0,0,0,0,0,0,0,0,0,0,0.0744,0,0,0,0,-0.05,0.0265,0.0265,0.1418,0.1418,1,3,1.64257E+18,1.64257E+18,1.64257E+18,1.64257E+18,1.64257E+18,1.64257E+18,1.64257E+18,1.64257E+18,1.64257E+18,1.64257E+18,0
56,1.64257E+18,1.64257E+18,1.64257E+18,1.64257E+18,16.8,367.6842,42.55,-0.033,-0.0075,0.1236,0.2248,-0.0742,-10.367,20.4087,64.277,42.3876,-0.0792,-0.0135,0.3107,-0.0319,-0.0088,0.1237,0,0,0,0,0,0,0,0,0,0,0,0,0,0,0,0,0,0,0,0,0,0,0,0,0,0,0,0,0,0,0,0,0,0,0,0,0,0,0,0,0,0,-0.05,0.0747,0,0,0.6567,0,0,0,0,0,0.0029,-0.0029,0.3107,0,0,0,0,0,0,0,0,0,0,0,0,0,0,0.0747,0,0,0,0,-0.05,0.0262,0.0262,0.142,0.142,1,3,1.64257E+18,1.64257E+18,1.64257E+18,1.64257E+18,1.64257E+18,1.64257E+18,1.64257E+18,1.64257E+18,1.64257E+18,1.64257E+18,0
57,1.64257E+18,1.64257E+18,1.64257E+18,1.64257E+18,16.8,367.6842,42.55,-0.032,-0.0096,0.1236,0.2319,-0.012,-10.4457,20.4087,64.277,42.3876,-0.0792,-0.0135,0.3113,-0.0319,-0.0091,0.1236,0,0,0,0,0,0,0,0,0,0,0,0,0,0,0,0,0,0,0,0,0,0,0,0,0,0,0,0,0,0,0,0,0,0,0,0,0,0,0,0,0,0,-0.05,0.0576,0,0,0.634,0,0,0,0,0,0,-0.0029,0.3113,0,0,0,0,0,0,0,0,0,0,0,0,0,0,0.0576,0,0,0,0,-0.05,0.0439,0.0439,0.1284,0.1284,1,3,1.64257E+18,1.64257E+18,1.64257E+18,1.64257E+18,1.64257E+18,1.64257E+18,1.64257E+18,1.64257E+18,1.64257E+18,1.64257E+18,0
58,1.64257E+18,1.64257E+18,1.64257E+18,1.64257E+18,16.8,367.6842,42.55,-0.0309,-0.0085,0.1246,0.2248,-0.0239,-10.4171,20.4087,64.277,42.3876,-0.0793,-0.0134,0.3119,-0.0316,-0.0089,0.124,0,0,0,0,0,0,0,0,0,0,0,0,0,0,0,0,0,0,0,0,0,0,0,0,0,0,0,0,0,0,0,0,0,0,0,0,0,0,0,0,0,0,-0.05,0.0618,0,0,0.6345,0,0,0,0,0,0,-0.0029,0.3119,0,0,0,0,0,0,0,0,0,0,0,0,0,0,0.0618,0,0,0,0,-0.05,0.0395,0.0395,0.1317,0.1317,1,3,1.64257E+18,1.64257E+18,1.64257E+18,1.64257E+18,1.64257E+18,1.64257E+18,1.64257E+18,1.64257E+18,1.64257E+18,1.64257E+18,0
59,1.64257E+18,1.64257E+18,1.64257E+18,1.64257E+18,16.8,367.6842,42.55,-0.0298,-0.0096,0.1236,0.1889,-0.0239,-10.4624,20.5861,65.1672,45.305,-0.0794,-0.0134,0.3125,-0.031,-0.0091,0.1238,0,0,0,0,0,0,0,0,0,0,0,0,0,0,0,0,0,0,0,0,0,0,0,0,0,0,0,0,0,0,0,0,0,0,0,0,0,0,0,0,0,0,-0.05,0.0645,0,0,0.6351,0,0,0,0,0,0,-0.0029,0.3125,0,0,0,0,0,0,0,0,0,0,0,0,0,0,0.0645,0,0,0,0,-0.05,0.0367,0.0367,0.1339,0.1339,1,3,1.64257E+18,1.64257E+18,1.64257E+18,1.64257E+18,1.64257E+18,1.64257E+18,1.64257E+18,1.64257E+18,1.64257E+18,1.64257E+18,0
60,1.64257E+18,1.64257E+18,1.64257E+18,1.64257E+18,16.8,367.7583,42.55,-0.032,-0.0107,0.1225,0.208,-0.0814,-10.4481,20.5861,65.1672,45.305,-0.0795,-0.0134,0.3131,-0.0313,-0.0096,0.1234,0,0,0,0,0,0,0,0,0,0,0,0,0,0,0,0,0,0,0,0,0,0,0,0,0,0,0,0,0,0,0,0,0,0,0,0,0,0,0,0,0,0,-0.05,0.0671,0,0,0.6357,0,0,0,0,0,0,-0.0029,0.3131,0,0,0,0,0,0,0,0,0,0,0,0,0,0,0.0671,0,0,0,0,-0.05,0.034,0.034,0.136,0.136,1,3,1.64257E+18,1.64257E+18,1.64257E+18,1.64257E+18,1.64257E+18,1.64257E+18,1.64257E+18,1.64257E+18,1.64257E+18,1.64257E+18,0
61,1.64257E+18,1.64257E+18,1.64257E+18,1.64257E+18,16.8,367.7583,42.55,-0.033,-0.0096,0.1236,0.2319,-0.0622,-10.4505,20.5861,65.1672,45.305,-0.0795,-0.0133,0.3137,-0.0319,-0.0096,0.1235,0,0,0,0,0,0,0,0,0,0,0,0,0,0,0,0,0,0,0,0,0,0,0,0,0,0,0,0,0,0,0,0,0,0,0,0,0,0,0,0,0,0,-0.05,0.0861,0,0,0.6595,0,0,0,0,0,0.0029,-0.0029,0.3137,0,0,0,0,0,0,0,0,0,0,0,0,0,0,0.0861,0,0,0,0,-0.05,0.0144,0.0144,0.151,0.151,1,3,1.64257E+18,1.64257E+18,1.64257E+18,1.64257E+18,1.64257E+18,1.64257E+18,1.64257E+18,1.64257E+18,1.64257E+18,1.64257E+18,0
62,1.64257E+18,1.64257E+18,1.64257E+18,1.64257E+18,16.8,367.7583,42.55,-0.0352,-0.0096,0.1214,0.2104,-0.0215,-10.4123,20.5861,65.1672,45.305,-0.0796,-0.0133,0.3143,-0.033,-0.0096,0.1228,0,0,0,0,0,0,0,0,0,0,0,0,0,0,0,0,0,0,0,0,0,0,0,0,0,0,0,0,0,0,0,0,0,0,0,0,0,0,0,0,0,0,-0.05,0.0834,0,0,0.6602,0,0,0,0,0,0.0029,-0.0029,0.3143,0,0,0,0,0,0,0,0,0,0,0,0,0,0,0.0834,0,0,0,0,-0.05,0.0172,0.0172,0.1489,0.1489,1,3,1.64257E+18,1.64257E+18,1.64257E+18,1.64257E+18,1.64257E+18,1.64257E+18,1.64257E+18,1.64257E+18,1.64257E+18,1.64257E+18,0
63,1.64257E+18,1.64257E+18,1.64257E+18,1.64257E+18,16.8,367.7583,42.55,-0.033,-0.0075,0.1225,0.2176,-0.0598,-10.3933,18.4565,64.455,44.9618,-0.0797,-0.0132,0.3149,-0.033,-0.0089,0.1227,0,0,0,0,0,0,0,0,0,0,0,0,0,0,0,0,0,0,0,0,0,0,0,0,0,0,0,0,0,0,0,0,0,0,0,0,0,0,0,0,0,0,-0.05,0.0808,0,0,0.6608,0,0,0,0,0,0.0029,-0.0029,0.3149,0,0,0,0,0,0,0,0,0,0,0,0,0,0,0.0808,0,0,0,0,-0.05,0.0199,0.0199,0.1468,0.1468,1,3,1.64257E+18,1.64257E+18,1.64257E+18,1.64257E+18,1.64257E+18,1.64257E+18,1.64257E+18,1.64257E+18,1.64257E+18,1.64257E+18,0
64,1.64257E+18,1.64257E+18,1.64257E+18,1.64257E+18,16.8,367.7583,42.55,-0.0309,-0.0085,0.1225,0.2463,-0.0191,-10.3694,18.4565,64.455,44.9618,-0.0798,-0.0132,0.3155,-0.0323,-0.0088,0.1226,0,0,0,0,0,0,0,0,0,0,0,0,0,0,0,0,0,0,0,0,0,0,0,0,0,0,0,0,0,0,0,0,0,0,0,0,0,0,0,0,0,0,-0.05,0.0784,0,0,0.6614,0,0,0,0,0,0.0029,-0.0029,0.3155,0,0,0,0,0,0,0,0,0,0,0,0,0,0,0.0784,0,0,0,0,-0.05,0.0223,0.0223,0.145,0.145,1,3,1.64257E+18,1.64257E+18,1.64257E+18,1.64257E+18,1.64257E+18,1.64257E+18,1.64257E+18,1.64257E+18,1.64257E+18,1.64257E+18,0
65,1.64257E+18,1.64257E+18,1.64257E+18,1.64257E+18,16.8,367.7583,42.55,-0.0309,-0.0085,0.1246,0.2343,-0.0215,-10.4457,18.4565,64.455,44.9618,-0.0798,-0.0131,0.3161,-0.0318,-0.0087,0.1233,0,0,0,0,0,0,0,0,0,0,0,0,0,0,0,0,0,0,0,0,0,0,0,0,0,0,0,0,0,0,0,0,0,0,0,0,0,0,0,0,0,0,-0.05,0.077,0,0,0.6619,0,0,0,0,0,0.0029,-0.0029,0.3161,0,0,0,0,0,0,0,0,0,0,0,0,0,0,0.077,0,0,0,0,-0.05,0.0238,0.0238,0.1438,0.1438,1,3,1.64257E+18,1.64257E+18,1.64257E+18,1.64257E+18,1.64257E+18,1.64257E+18,1.64257E+18,1.64257E+18,1.64257E+18,1.64257E+18,0
66,1.64257E+18,1.64257E+18,1.64257E+18,1.64257E+18,16.8,367.7583,42.55,-0.033,-0.0096,0.1246,0.2033,-0.0096,-10.4004,18.4565,64.455,44.9618,-0.0799,-0.0131,0.3167,-0.0322,-0.009,0.1237,0,0,0,0,0,0,0,0,0,0,0,0,0,0,0,0,0,0,0,0,0,0,0,0,0,0,0,0,0,0,0,0,0,0,0,0,0,0,0,0,0,0,-0.05,0.0768,0,0,0.6626,0,0,0,0,0,0.0029,0,0.3167,0,0,0,0,0,0,0,0,0,0,0,0,0,0,0.0768,0,0,0,0,-0.05,0.024,0.024,0.1437,0.1437,1,3,1.64257E+18,1.64257E+18,1.64257E+18,1.64257E+18,1.64257E+18,1.64257E+18,1.64257E+18,1.64257E+18,1.64257E+18,1.64257E+18,0
67,1.64257E+18,1.64257E+18,1.64257E+18,1.64257E+18,16.8,367.7583,42.55,-0.0309,-0.0085,0.1225,0.2152,-0.0144,-10.4624,20.4087,64.6331,43.7605,-0.08,-0.0131,0.3173,-0.0318,-0.0088,0.1233,0,0,0,0,0,0,0,0,0,0,0,0,0,0,0,0,0,0,0,0,0,0,0,0,0,0,0,0,0,0,0,0,0,0,0,0,0,0,0,0,0,0,-0.05,0.076,0,0,0.6631,0,0,0,0,0,0.0029,0,0.3173,0,0,0,0,0,0,0,0,0,0,0,0,0,0,0.076,0,0,0,0,-0.05,0.0248,0.0248,0.143,0.143,1,3,1.64257E+18,1.64257E+18,1.64257E+18,1.64257E+18,1.64257E+18,1.64257E+18,1.64257E+18,1.64257E+18,1.64257E+18,1.64257E+18,0
68,1.64257E+18,1.64257E+18,1.64257E+18,1.64257E+18,16.8,367.7583,42.55,-0.0298,-0.0096,0.1257,0.2152,-0.0598,-10.4743,20.4087,64.6331,43.7605,-0.08,-0.013,0.3179,-0.0311,-0.0091,0.1241,0,0,0,0,0,0,0,0,0,0,0,0,0,0,0,0,0,0,0,0,0,0,0,0,0,0,0,0,0,0,0,0,0,0,0,0,0,0,0,0,0,0,-0.05,0.0753,0,0,0.6636,0,0,0,0,0,0.0029,0,0.3179,0,0,0,0,0,0,0,0,0,0,0,0,0,0,0.0753,0,0,0,0,-0.05,0.0255,0.0255,0.1425,0.1425,1,3,1.64257E+18,1.64257E+18,1.64257E+18,1.64257E+18,1.64257E+18,1.64257E+18,1.64257E+18,1.64257E+18,1.64257E+18,1.64257E+18,0
69,1.64257E+18,1.64257E+18,1.64257E+18,1.64257E+18,16.8,367.7583,42.55,-0.0309,-0.0096,0.1246,0.2319,0.012,-10.429,20.4087,64.6331,43.7605,-0.0801,-0.013,0.3185,-0.0311,-0.0093,0.1243,0,0,0,0,0,0,0,0,0,0,0,0,0,0,0,0,0,0,0,0,0,0,0,0,0,0,0,0,0,0,0,0,0,0,0,0,0,0,0,0,0,0,-0.05,0.0753,0,0,0.6642,0,0,0,0,0,0.0029,0,0.3185,0,0,0,0,0,0,0,0,0,0,0,0,0,0,0.0753,0,0,0,0,-0.05,0.0256,0.0256,0.1424,0.1424,1,3,1.64257E+18,1.64257E+18,1.64257E+18,1.64257E+18,1.64257E+18,1.64257E+18,1.64257E+18,1.64257E+18,1.64257E+18,1.64257E+18,0
70,1.64257E+18,1.64257E+18,1.64257E+18,1.64257E+18,16.8,367.7583,42.55,-0.032,-0.0107,0.1289,0.2248,-0.0096,-10.3956,20.4087,64.6331,43.7605,-0.0802,-0.0129,0.3192,-0.0314,-0.0097,0.1258,0,0,0,0,0,0,0,0,0,0,0,0,0,0,0,0,0,0,0,0,0,0,0,0,0,0,0,0,0,0,0,0,0,0,0,0,0,0,0,0,0,0,-0.05,0.0756,0,0,0.6648,0,0,0,0,0,0.0029,0,0.3192,0,0,0,0,0,0,0,0,0,0,0,0,0,0,0.0756,0,0,0,0,-0.05,0.0252,0.0252,0.1427,0.1427,1,3,1.64257E+18,1.64257E+18,1.64257E+18,1.64257E+18,1.64257E+18,1.64257E+18,1.64257E+18,1.64257E+18,1.64257E+18,1.64257E+18,0
71,1.64257E+18,1.64257E+18,1.64257E+18,1.64257E+18,16.8,367.7583,42.55,-0.0309,-0.0085,0.1257,0.2152,-0.012,-10.4863,19.1664,64.8111,43.2457,-0.0803,-0.0129,0.3198,-0.0312,-0.0093,0.1258,0,0,0,0,0,0,0,0,0,0,0,0,0,0,0,0,0,0,0,0,0,0,0,0,0,0,0,0,0,0,0,0,0,0,0,0,0,0,0,0,0,0,-0.05,0.0756,0,0,0.6654,0,0,0,0,0,0.0029,0,0.3198,0,0,0,0,0,0,0,0,0,0,0,0,0,0,0.0756,0,0,0,0,-0.05,0.0253,0.0253,0.1427,0.1427,1,3,1.64257E+18,1.64257E+18,1.64257E+18,1.64257E+18,1.64257E+18,1.64257E+18,1.64257E+18,1.64257E+18,1.64257E+18,1.64257E+18,0
72,1.64257E+18,1.64257E+18,1.64257E+18,1.64257E+18,16.8,367.7583,42.55,-0.033,-0.0075,0.1246,0.2511,-0.055,-10.41,19.1664,64.8111,43.2457,-0.0803,-0.0128,0.3204,-0.0318,-0.0087,0.1254,0,0,0,0,0,0,0,0,0,0,0,0,0,0,0,0,0,0,0,0,0,0,0,0,0,0,0,0,0,0,0,0,0,0,0,0,0,0,0,0,0,0,-0.05,0.0762,0,0,0.666,0,0,0,0,0,0.0029,0,0.3204,0,0,0,0,0,0,0,0,0,0,0,0,0,0,0.0762,0,0,0,0,-0.05,0.0247,0.0247,0.1431,0.1431,1,3,1.64257E+18,1.64257E+18,1.64257E+18,1.64257E+18,1.64257E+18,1.64257E+18,1.64257E+18,1.64257E+18,1.64257E+18,1.64257E+18,0
73,1.64257E+18,1.64257E+18,1.64257E+18,1.64257E+18,16.8,367.7583,42.55,-0.0309,-0.0075,0.1236,0.2248,-0.0335,-10.4195,19.1664,64.8111,43.2457,-0.0804,-0.0128,0.321,-0.0315,-0.0083,0.1248,0,0,0,0,0,0,0,0,0,0,0,0,0,0,0,0,0,0,0,0,0,0,0,0,0,0,0,0,0,0,0,0,0,0,0,0,0,0,0,0,0,0,-0.05,0.0589,0,0,0.6433,0,0,0,0,0,0,0,0.321,0,0,0,0,0,0,0,0,0,0,0,0,0,0,0.0589,0,0,0,0,-0.05,0.0425,0.0425,0.1295,0.1295,1,3,1.64257E+18,1.64257E+18,1.64257E+18,1.64257E+18,1.64257E+18,1.64257E+18,1.64257E+18,1.64257E+18,1.64257E+18,1.64257E+18,0
74,1.64257E+18,1.64257E+18,1.64257E+18,1.64257E+18,16.8,367.7583,42.55,-0.0298,-0.0085,0.1257,0.2726,-0.0191,-10.398,19.1664,64.8111,43.2457,-0.0805,-0.0127,0.3216,-0.0309,-0.0084,0.1251,0,0,0,0,0,0,0,0,0,0,0,0,0,0,0,0,0,0,0,0,0,0,0,0,0,0,0,0,0,0,0,0,0,0,0,0,0,0,0,0,0,0,-0.05,0.0801,0,0,0.667,0,0,0,0,0,0.0029,0,0.3216,0,0,0,0,0,0,0,0,0,0,0,0,0,0,0.0801,0,0,0,0,-0.05,0.0206,0.0206,0.1463,0.1463,1,3,1.64257E+18,1.64257E+18,1.64257E+18,1.64257E+18,1.64257E+18,1.64257E+18,1.64257E+18,1.64257E+18,1.64257E+18,1.64257E+18,0
75,1.64257E+18,1.64257E+18,1.64257E+18,1.64257E+18,16.8,367.7583,42.55,-0.0309,-0.0117,0.1236,0.2272,-0.0718,-10.4171,19.5213,64.0989,44.2753,-0.0805,-0.0127,0.3222,-0.0309,-0.0095,0.1246,0,0,0,0,0,0,0,0,0,0,0,0,0,0,0,0,0,0,0,0,0,0,0,0,0,0,0,0,0,0,0,0,0,0,0,0,0,0,0,0,0,0,-0.05,0.0789,0,0,0.6676,0,0,0,0,0,0.0029,0,0.3222,0,0,0,0,0,0,0,0,0,0,0,0,0,0,0.0789,0,0,0,0,-0.05,0.0219,0.0219,0.1453,0.1453,1,3,1.64257E+18,1.64257E+18,1.64257E+18,1.64257E+18,1.64257E+18,1.64257E+18,1.64257E+18,1.64257E+18,1.64257E+18,1.64257E+18,0
76,1.64257E+18,1.64257E+18,1.64257E+18,1.64257E+18,16.8,367.7583,42.55,-0.0309,-0.0085,0.1236,0.2152,0.0024,-10.4028,19.5213,64.0989,44.2753,-0.0806,-0.0127,0.3228,-0.0309,-0.0092,0.1242,0,0,0,0,0,0,0,0,0,0,0,0,0,0,0,0,0,0,0,0,0,0,0,0,0,0,0,0,0,0,0,0,0,0,0,0,0,0,0,0,0,0,-0.05,0.078,0,0,0.6681,0,0,0,0,0,0.0029,0,0.3228,0,0,0,0,0,0,0,0,0,0,0,0,0,0,0.078,0,0,0,0,-0.05,0.0228,0.0228,0.1446,0.1446,1,3,1.64257E+18,1.64257E+18,1.64257E+18,1.64257E+18,1.64257E+18,1.64257E+18,1.64257E+18,1.64257E+18,1.64257E+18,1.64257E+18,0
77,1.64257E+18,1.64257E+18,1.64257E+18,1.64257E+18,16.8,367.7583,42.55,-0.0298,-0.0085,0.1246,0.1793,-0.0455,-10.3956,19.5213,64.0989,44.2753,-0.0807,-0.0126,0.3234,-0.0306,-0.0089,0.1244,0,0,0,0,0,0,0,0,0,0,0,0,0,0,0,0,0,0,0,0,0,0,0,0,0,0,0,0,0,0,0,0,0,0,0,0,0,0,0,0,0,0,-0.05,0.0772,0,0,0.6686,0,0,0,0,0,0.0029,0,0.3234,0,0,0,0,0,0,0,0,0,0,0,0,0,0,0.0772,0,0,0,0,-0.05,0.0236,0.0236,0.144,0.144,1,3,1.64257E+18,1.64257E+18,1.64257E+18,1.64257E+18,1.64257E+18,1.64257E+18,1.64257E+18,1.64257E+18,1.64257E+18,1.64257E+18,0
78,1.64257E+18,1.64257E+18,1.64257E+18,1.64257E+18,16.8,367.7583,42.55,-0.032,-0.0107,0.1236,0.2367,-0.0383,-10.4195,19.5213,64.0989,44.2753,-0.0807,-0.0126,0.324,-0.031,-0.0095,0.1241,0,0,0,0,0,0,0,0,0,0,0,0,0,0,0,0,0,0,0,0,0,0,0,0,0,0,0,0,0,0,0,0,0,0,0,0,0,0,0,0,0,0,-0.05,0.0774,0,0,0.6692,0,0,0,0,0,0.0029,0,0.324,0,0,0,0,0,0,0,0,0,0,0,0,0,0,0.0774,0,0,0,0,-0.05,0.0234,0.0234,0.1441,0.1441,1,3,1.64257E+18,1.64257E+18,1.64257E+18,1.64257E+18,1.64257E+18,1.64257E+18,1.64257E+18,1.64257E+18,1.64257E+18,1.64257E+18,0
79,1.64257E+18,1.64257E+18,1.64257E+18,1.64257E+18,16.8,367.7583,42.55,-0.032,-0.0096,0.1246,0.2248,-0.012,-10.379,19.5213,63.3867,44.6186,-0.0808,-0.0125,0.3246,-0.0313,-0.0095,0.1243,0,0,0,0,0,0,0,0,0,0,0,0,0,0,0,0,0,0,0,0,0,0,0,0,0,0,0,0,0,0,0,0,0,0,0,0,0,0,0,0,0,0,-0.05,0.0605,0,0,0.6465,0,0,0,0,0,0,0,0.3246,0,0,0,0,0,0,0,0,0,0,0,0,0,0,0.0605,0,0,0,0,-0.05,0.0409,0.0409,0.1307,0.1307,1,3,1.64257E+18,1.64257E+18,1.64257E+18,1.64257E+18,1.64257E+18,1.64257E+18,1.64257E+18,1.64257E+18,1.64257E+18,1.64257E+18,0
80,1.64257E+18,1.64257E+18,1.64257E+18,1.64257E+18,16.8,367.7135,42.55,-0.033,-0.0075,0.1225,0.2391,-0.012,-10.3909,19.5213,63.3867,44.6186,-0.0809,-0.0125,0.3252,-0.0319,-0.0088,0.1237,0,0,0,0,0,0,0,0,0,0,0,0,0,0,0,0,0,0,0,0,0,0,0,0,0,0,0,0,0,0,0,0,0,0,0,0,0,0,0,0,0,0,-0.05,0.0653,0,0,0.6471,0,0,0,0,0,0,0,0.3252,0,0,0,0,0,0,0,0,0,0,0,0,0,0,0.0653,0,0,0,0,-0.05,0.0359,0.0359,0.1346,0.1346,1,3,1.64257E+18,1.64257E+18,1.64257E+18,1.64257E+18,1.64257E+18,1.64257E+18,1.64257E+18,1.64257E+18,1.64257E+18,1.64257E+18,0
81,1.64257E+18,1.64257E+18,1.64257E+18,1.64257E+18,16.8,367.7135,42.55,-0.0298,-0.0075,0.1225,0.2391,0,-10.4052,19.5213,63.3867,44.6186,-0.081,-0.0124,0.3258,-0.0312,-0.0084,0.1233,0,0,0,0,0,0,0,0,0,0,0,0,0,0,0,0,0,0,0,0,0,0,0,0,0,0,0,0,0,0,0,0,0,0,0,0,0,0,0,0,0,0,-0.05,0.0677,0,0,0.6476,0,0,0,0,0,0,0,0.3258,0,0,0,0,0,0,0,0,0,0,0,0,0,0,0.0677,0,0,0,0,-0.05,0.0334,0.0334,0.1365,0.1365,1,3,1.64257E+18,1.64257E+18,1.64257E+18,1.64257E+18,1.64257E+18,1.64257E+18,1.64257E+18,1.64257E+18,1.64257E+18,1.64257E+18,0
82,1.64257E+18,1.64257E+18,1.64257E+18,1.64257E+18,16.8,367.7135,42.55,-0.032,-0.0117,0.1214,0.2272,-0.0311,-10.4243,19.5213,63.3867,44.6186,-0.081,-0.0124,0.3264,-0.0315,-0.0095,0.1227,0,0,0,0,0,0,0,0,0,0,0,0,0,0,0,0,0,0,0,0,0,0,0,0,0,0,0,0,0,0,0,0,0,0,0,0,0,0,0,0,0,0,-0.05,0.0702,0,0,0.6482,0,0,0,0,0,0,0,0.3264,0,0,0,0,0,0,0,0,0,0,0,0,0,0,0.0702,0,0,0,0,-0.05,0.0309,0.0309,0.1384,0.1384,1,3,1.64257E+18,1.64257E+18,1.64257E+18,1.64257E+18,1.64257E+18,1.64257E+18,1.64257E+18,1.64257E+18,1.64257E+18,1.64257E+18,0
83,1.64257E+18,1.64257E+18,1.64257E+18,1.64257E+18,16.8,367.7135,42.55,-0.0309,-0.0096,0.1236,0.2224,-0.0191,-10.3933,20.5861,64.8111,44.2753,-0.0811,-0.0124,0.327,-0.0313,-0.0095,0.123,0,0,0,0,0,0,0,0,0,0,0,0,0,0,0,0,0,0,0,0,0,0,0,0,0,0,0,0,0,0,0,0,0,0,0,0,0,0,0,0,0,0,-0.05,0.0884,0,0,0.672,0,0,0,0,0,0.0029,0,0.327,0,0,0,0,0,0,0,0,0,0,0,0,0,0,0.0884,0,0,0,0,-0.05,0.012,0.012,0.1529,0.1529,1,3,1.64257E+18,1.64257E+18,1.64257E+18,1.64257E+18,1.64257E+18,1.64257E+18,1.64257E+18,1.64257E+18,1.64257E+18,1.64257E+18,0
84,1.64257E+18,1.64257E+18,1.64257E+18,1.64257E+18,16.8,367.7135,42.55,-0.0298,-0.0107,0.1214,0.2248,-0.0263,-10.429,20.5861,64.8111,44.2753,-0.0812,-0.0123,0.3276,-0.0308,-0.0099,0.1225,0,0,0,0,0,0,0,0,0,0,0,0,0,0,0,0,0,0,0,0,0,0,0,0,0,0,0,0,0,0,0,0,0,0,0,0,0,0,0,0,0,0,-0.05,0.0846,0,0,0.6725,0,0,0,0,0,0.0029,0,0.3276,0,0,0,0,0,0,0,0,0,0,0,0,0,0,0.0846,0,0,0,0,-0.05,0.016,0.016,0.1498,0.1498,1,3,1.64257E+18,1.64257E+18,1.64257E+18,1.64257E+18,1.64257E+18,1.64257E+18,1.64257E+18,1.64257E+18,1.64257E+18,1.64257E+18,0
85,1.64257E+18,1.64257E+18,1.64257E+18,1.64257E+18,16.8,367.7135,42.55,-0.0309,-0.0085,0.1225,0.2152,-0.0311,-10.4219,20.5861,64.8111,44.2753,-0.0812,-0.0123,0.3282,-0.0308,-0.0094,0.1225,0,0,0,0,0,0,0,0,0,0,0,0,0,0,0,0,0,0,0,0,0,0,0,0,0,0,0,0,0,0,0,0,0,0,0,0,0,0,0,0,0,0,-0.05,0.0823,0,0,0.6731,0,0,0,0,0,0.0029,0,0.3282,0,0,0,0,0,0,0,0,0,0,0,0,0,0,0.0823,0,0,0,0,-0.05,0.0183,0.0183,0.1481,0.1481,1,3,1.64257E+18,1.64257E+18,1.64257E+18,1.64257E+18,1.64257E+18,1.64257E+18,1.64257E+18,1.64257E+18,1.64257E+18,1.64257E+18,0
86,1.64257E+18,1.64257E+18,1.64257E+18,1.64257E+18,16.8,367.7135,42.55,-0.0298,-0.0096,0.1214,0.2296,-0.0311,-10.4028,20.5861,64.8111,44.2753,-0.0813,-0.0122,0.3288,-0.0305,-0.0095,0.1221,0,0,0,0,0,0,0,0,0,0,0,0,0,0,0,0,0,0,0,0,0,0,0,0,0,0,0,0,0,0,0,0,0,0,0,0,0,0,0,0,0,0,-0.05,0.0805,0,0,0.6735,0,0,0,0,0,0.0029,0,0.3288,0,0,0,0,0,0,0,0,0,0,0,0,0,0,0.0805,0,0,0,0,-0.05,0.0201,0.0201,0.1466,0.1466,1,3,1.64257E+18,1.64257E+18,1.64257E+18,1.64257E+18,1.64257E+18,1.64257E+18,1.64257E+18,1.64257E+18,1.64257E+18,1.64257E+18,0
87,1.64257E+18,1.64257E+18,1.64257E+18,1.64257E+18,16.8,367.7135,42.55,-0.0288,-0.0107,0.1204,0.208,-0.0072,-10.4767,20.2312,63.3867,43.5889,-0.0813,-0.0122,0.3294,-0.0299,-0.0099,0.1215,0,0,0,0,0,0,0,0,0,0,0,0,0,0,0,0,0,0,0,0,0,0,0,0,0,0,0,0,0,0,0,0,0,0,0,0,0,0,0,0,0,0,-0.05,0.0791,0,0,0.674,0,0,0,0,0,0.0029,-0.0029,0.3294,0,0,0,0,0,0,0,0,0,0,0,0,0,0,0.0791,0,0,0,0,-0.05,0.0216,0.0216,0.1455,0.1455,1,3,1.64257E+18,1.64257E+18,1.64257E+18,1.64257E+18,1.64257E+18,1.64257E+18,1.64257E+18,1.64257E+18,1.64257E+18,1.64257E+18,0
88,1.64257E+18,1.64257E+18,1.64257E+18,1.64257E+18,16.8,367.7135,42.55,-0.033,-0.0107,0.1204,0.2319,-0.0144,-10.5077,20.2312,63.3867,43.5889,-0.0814,-0.0122,0.33,-0.031,-0.0101,0.1212,0,0,0,0,0,0,0,0,0,0,0,0,0,0,0,0,0,0,0,0,0,0,0,0,0,0,0,0,0,0,0,0,0,0,0,0,0,0,0,0,0,0,-0.05,0.0795,0,0,0.6746,0,0,0,0,0,0.0029,-0.0029,0.33,0,0,0,0,0,0,0,0,0,0,0,0,0,0,0.0795,0,0,0,0,-0.05,0.0212,0.0212,0.1458,0.1458,1,3,1.64257E+18,1.64257E+18,1.64257E+18,1.64257E+18,1.64257E+18,1.64257E+18,1.64257E+18,1.64257E+18,1.64257E+18,1.64257E+18,0
89,1.64257E+18,1.64257E+18,1.64257E+18,1.64257E+18,16.8,367.7135,42.55,-0.032,-0.0075,0.1193,0.22,-0.0024,-10.3694,20.2312,63.3867,43.5889,-0.0815,-0.0121,0.3305,-0.0313,-0.0092,0.1205,0,0,0,0,0,0,0,0,0,0,0,0,0,0,0,0,0,0,0,0,0,0,0,0,0,0,0,0,0,0,0,0,0,0,0,0,0,0,0,0,0,0,-0.05,0.0793,0,0,0.6752,0,0,0,0,0,0.0029,-0.0029,0.3305,0,0,0,0,0,0,0,0,0,0,0,0,0,0,0.0793,0,0,0,0,-0.05,0.0215,0.0215,0.1456,0.1456,1,3,1.64257E+18,1.64257E+18,1.64257E+18,1.64257E+18,1.64257E+18,1.64257E+18,1.64257E+18,1.64257E+18,1.64257E+18,1.64257E+18,0
90,1.64257E+18,1.64257E+18,1.64257E+18,1.64257E+18,16.8,367.7135,42.55,-0.0298,-0.0096,0.1172,0.263,-0.0311,-10.4314,20.2312,63.3867,43.5889,-0.0816,-0.0121,0.3311,-0.0308,-0.0094,0.1194,0,0,0,0,0,0,0,0,0,0,0,0,0,0,0,0,0,0,0,0,0,0,0,0,0,0,0,0,0,0,0,0,0,0,0,0,0,0,0,0,0,0,-0.05,0.0785,0,0,0.6757,0,0,0,0,0,0.0029,-0.0029,0.3311,0,0,0,0,0,0,0,0,0,0,0,0,0,0,0.0785,0,0,0,0,-0.05,0.0223,0.0223,0.145,0.145,1,3,1.64257E+18,1.64257E+18,1.64257E+18,1.64257E+18,1.64257E+18,1.64257E+18,1.64257E+18,1.64257E+18,1.64257E+18,1.64257E+18,0
91,1.64257E+18,1.64257E+18,1.64257E+18,1.64257E+18,16.8,367.7135,42.55,-0.032,-0.0085,0.1193,0.2726,-0.0622,-10.4529,19.6988,66.0575,44.7902,-0.0816,-0.012,0.3317,-0.0312,-0.0091,0.1194,0,0,0,0,0,0,0,0,0,0,0,0,0,0,0,0,0,0,0,0,0,0,0,0,0,0,0,0,0,0,0,0,0,0,0,0,0,0,0,0,0,0,-0.05,0.0787,0,0,0.6763,0,0,0,0,0,0.0029,-0.0029,0.3317,0,0,0,0,0,0,0,0,0,0,0,0,0,0,0.0787,0,0,0,0,-0.05,0.0221,0.0221,0.1452,0.1452,1,3,1.64257E+18,1.64257E+18,1.64257E+18,1.64257E+18,1.64257E+18,1.64257E+18,1.64257E+18,1.64257E+18,1.64257E+18,1.64257E+18,0
92,1.64257E+18,1.64257E+18,1.64257E+18,1.64257E+18,16.8,367.7135,42.55,-0.0309,-0.0085,0.1182,0.2367,-0.0168,-10.4839,19.6988,66.0575,44.7902,-0.0817,-0.012,0.3323,-0.0311,-0.0089,0.119,0,0,0,0,0,0,0,0,0,0,0,0,0,0,0,0,0,0,0,0,0,0,0,0,0,0,0,0,0,0,0,0,0,0,0,0,0,0,0,0,0,0,-0.05,0.0785,0,0,0.6768,0,0,0,0,0,0.0029,0,0.3323,0,0,0,0,0,0,0,0,0,0,0,0,0,0,0.0785,0,0,0,0,-0.05,0.0223,0.0223,0.145,0.145,1,3,1.64257E+18,1.64257E+18,1.64257E+18,1.64257E+18,1.64257E+18,1.64257E+18,1.64257E+18,1.64257E+18,1.64257E+18,1.64257E+18,0
93,1.64257E+18,1.64257E+18,1.64257E+18,1.64257E+18,16.8,367.7135,42.55,-0.0309,-0.0085,0.115,0.2367,-0.0431,-10.4886,19.6988,66.0575,44.7902,-0.0818,-0.0119,0.3328,-0.031,-0.0088,0.1177,0,0,0,0,0,0,0,0,0,0,0,0,0,0,0,0,0,0,0,0,0,0,0,0,0,0,0,0,0,0,0,0,0,0,0,0,0,0,0,0,0,0,-0.05,0.0784,0,0,0.6773,0,0,0,0,0,0.0029,0,0.3328,0,0,0,0,0,0,0,0,0,0,0,0,0,0,0.0784,0,0,0,0,-0.05,0.0224,0.0224,0.1449,0.1449,1,3,1.64257E+18,1.64257E+18,1.64257E+18,1.64257E+18,1.64257E+18,1.64257E+18,1.64257E+18,1.64257E+18,1.64257E+18,1.64257E+18,0
94,1.64257E+18,1.64257E+18,1.64257E+18,1.64257E+18,16.8,367.7135,42.55,-0.032,-0.0107,0.114,0.208,-0.0287,-10.4052,19.6988,66.0575,44.7902,-0.0818,-0.0119,0.3334,-0.0313,-0.0094,0.1165,0,0,0,0,0,0,0,0,0,0,0,0,0,0,0,0,0,0,0,0,0,0,0,0,0,0,0,0,0,0,0,0,0,0,0,0,0,0,0,0,0,0,-0.05,0.0787,0,0,0.6778,0,0,0,0,0,0.0029,0,0.3334,0,0,0,0,0,0,0,0,0,0,0,0,0,0,0.0787,0,0,0,0,-0.05,0.0221,0.0221,0.1451,0.1451,1,3,1.64257E+18,1.64257E+18,1.64257E+18,1.64257E+18,1.64257E+18,1.64257E+18,1.64257E+18,1.64257E+18,1.64257E+18,1.64257E+18,0
95,1.64257E+18,1.64257E+18,1.64257E+18,1.64257E+18,16.8,367.7135,42.55,-0.032,-0.0085,0.1119,0.2391,-0.0526,-10.4743,20.0537,63.5647,45.4766,-0.0819,-0.0119,0.3339,-0.0315,-0.0091,0.1149,0,0,0,0,0,0,0,0,0,0,0,0,0,0,0,0,0,0,0,0,0,0,0,0,0,0,0,0,0,0,0,0,0,0,0,0,0,0,0,0,0,0,-0.05,0.0788,0,0,0.6784,0,0,0,0,0,0.0029,0,0.3339,0,0,0,0,0,0,0,0,0,0,0,0,0,0,0.0788,0,0,0,0,-0.05,0.0219,0.0219,0.1453,0.1453,1,3,1.64257E+18,1.64257E+18,1.64257E+18,1.64257E+18,1.64257E+18,1.64257E+18,1.64257E+18,1.64257E+18,1.64257E+18,1.64257E+18,0
96,1.64257E+18,1.64257E+18,1.64257E+18,1.64257E+18,16.8,367.7135,42.55,-0.0309,-0.0085,0.115,0.1913,-0.0048,-10.4004,20.0537,63.5647,45.4766,-0.082,-0.0118,0.3345,-0.0313,-0.0089,0.115,0,0,0,0,0,0,0,0,0,0,0,0,0,0,0,0,0,0,0,0,0,0,0,0,0,0,0,0,0,0,0,0,0,0,0,0,0,0,0,0,0,0,-0.05,0.0786,0,0,0.6789,0,0,0,0,0,0.0029,0,0.3345,0,0,0,0,0,0,0,0,0,0,0,0,0,0,0.0786,0,0,0,0,-0.05,0.0221,0.0221,0.1451,0.1451,1,3,1.64257E+18,1.64257E+18,1.64257E+18,1.64257E+18,1.64257E+18,1.64257E+18,1.64257E+18,1.64257E+18,1.64257E+18,1.64257E+18,0
97,1.64257E+18,1.64257E+18,1.64257E+18,1.64257E+18,16.8,367.7135,42.55,-0.032,-0.0075,0.1119,0.2248,-0.0263,-10.4553,20.0537,63.5647,45.4766,-0.082,-0.0118,0.335,-0.0315,-0.0084,0.1139,0,0,0,0,0,0,0,0,0,0,0,0,0,0,0,0,0,0,0,0,0,0,0,0,0,0,0,0,0,0,0,0,0,0,0,0,0,0,0,0,0,0,-0.05,0.0789,0,0,0.6795,0,0,0,0,0,0.0029,0,0.335,0,0,0,0,0,0,0,0,0,0,0,0,0,0,0.0789,0,0,0,0,-0.05,0.0218,0.0218,0.1453,0.1453,1,3,1.64257E+18,1.64257E+18,1.64257E+18,1.64257E+18,1.64257E+18,1.64257E+18,1.64257E+18,1.64257E+18,1.64257E+18,1.64257E+18,0
98,1.64257E+18,1.64257E+18,1.64257E+18,1.64257E+18,16.8,367.7135,42.55,-0.032,-0.0107,0.1119,0.2296,0,-10.3885,20.0537,63.5647,45.4766,-0.0821,-0.0117,0.3355,-0.0317,-0.0092,0.1132,0,0,0,0,0,0,0,0,0,0,0,0,0,0,0,0,0,0,0,0,0,0,0,0,0,0,0,0,0,0,0,0,0,0,0,0,0,0,0,0,0,0,-0.05,0.0791,0,0,0.6801,0,0,0,0,0,0.0029,0,0.3355,0,0,0,0,0,0,0,0,0,0,0,0,0,0,0.0791,0,0,0,0,-0.05,0.0216,0.0216,0.1455,0.1455,1,3,1.64257E+18,1.64257E+18,1.64257E+18,1.64257E+18,1.64257E+18,1.64257E+18,1.64257E+18,1.64257E+18,1.64257E+18,1.64257E+18,0
99,1.64257E+18,1.64257E+18,1.64257E+18,1.64257E+18,16.8,367.7135,42.55,-0.0309,-0.0085,0.1097,0.2559,-0.0455,-10.41,21.296,64.0989,44.6186,-0.0822,-0.0117,0.3361,-0.0314,-0.009,0.1121,0,0,0,0,0,0,0,0,0,0,0,0,0,0,0,0,0,0,0,0,0,0,0,0,0,0,0,0,0,0,0,0,0,0,0,0,0,0,0,0,0,0,-0.05,0.0789,0,0,0.6806,0,0,0,0,0,0.0029,0,0.3361,0,0,0,0,0,0,0,0,0,0,0,0,0,0,0.0789,0,0,0,0,-0.05,0.0218,0.0218,0.1454,0.1454,1,3,1.64257E+18,1.64257E+18,1.64257E+18,1.64257E+18,1.64257E+18,1.64257E+18,1.64257E+18,1.64257E+18,1.64257E+18,1.64257E+18,0
100,1.64257E+18,1.64257E+18,1.64257E+18,1.64257E+18,16.8,367.7135,42.55,-0.0309,-0.0085,0.1108,0.2343,-0.0048,-10.4147,21.296,64.0989,44.6186,-0.0822,-0.0117,0.3366,-0.0312,-0.0088,0.1116,0,0,0,0,0,0,0,0,0,0,0,0,0,0,0,0,0,0,0,0,0,0,0,0,0,0,0,0,0,0,0,0,0,0,0,0,0,0,0,0,0,0,-0.05,0.0789,0,0,0.6811,0,0,0,0,0,0.0029,0,0.3366,0,0,0,0,0,0,0,0,0,0,0,0,0,0,0.0789,0,0,0,0,-0.05,0.0218,0.0218,0.1453,0.1453,1,3,1.64257E+18,1.64257E+18,1.64257E+18,1.64257E+18,1.64257E+18,1.64257E+18,1.64257E+18,1.64257E+18,1.64257E+18,1.64257E+18,0
101,1.64257E+18,1.64257E+18,1.64257E+18,1.64257E+18,16.8,367.7135,42.55,-0.0298,-0.0085,0.1097,0.2606,-0.0311,-10.4243,21.296,64.0989,44.6186,-0.0823,-0.0116,0.3372,-0.0308,-0.0087,0.111,0,0,0,0,0,0,0,0,0,0,0,0,0,0,0,0,0,0,0,0,0,0,0,0,0,0,0,0,0,0,0,0,0,0,0,0,0,0,0,0,0,0,-0.05,0.0787,0,0,0.6816,0,0,0,0,0,0.0029,-0.0029,0.3372,0,0,0,0,0,0,0,0,0,0,0,0,0,0,0.0787,0,0,0,0,-0.05,0.0221,0.0221,0.1452,0.1452,1,3,1.64257E+18,1.64257E+18,1.64257E+18,1.64257E+18,1.64257E+18,1.64257E+18,1.64257E+18,1.64257E+18,1.64257E+18,1.64257E+18,0
102,1.64257E+18,1.64257E+18,1.64257E+18,1.64257E+18,16.8,367.7135,42.55,-0.0288,-0.0085,0.1076,0.2152,0.0048,-10.4147,21.296,64.0989,44.6186,-0.0823,-0.0116,0.3377,-0.0301,-0.0086,0.1099,0,0,0,0,0,0,0,0,0,0,0,0,0,0,0,0,0,0,0,0,0,0,0,0,0,0,0,0,0,0,0,0,0,0,0,0,0,0,0,0,0,0,-0.05,0.0784,0,0,0.682,0,0,0,0,0,0.0029,-0.0029,0.3377,0,0,0,0,0,0,0,0,0,0,0,0,0,0,0.0784,0,0,0,0,-0.05,0.0224,0.0224,0.1449,0.1449,1,3,1.64257E+18,1.64257E+18,1.64257E+18,1.64257E+18,1.64257E+18,1.64257E+18,1.64257E+18,1.64257E+18,1.64257E+18,1.64257E+18,0
103,1.64257E+18,1.64257E+18,1.64257E+18,1.64257E+18,16.8,367.7135,42.55,-0.0288,-0.0085,0.1055,0.1985,-0.0287,-10.4886,21.1185,62.1403,44.4469,-0.0824,-0.0115,0.3382,-0.0297,-0.0086,0.1084,0,0,0,0,0,0,0,0,0,0,0,0,0,0,0,0,0,0,0,0,0,0,0,0,0,0,0,0,0,0,0,0,0,0,0,0,0,0,0,0,0,0,-0.05,0.0784,0,0,0.6825,0,0,0,0,0,0.0029,-0.0029,0.3382,0,0,0,0,0,0,0,0,0,0,0,0,0,0,0.0784,0,0,0,0,-0.05,0.0224,0.0224,0.1449,0.1449,1,3,1.64257E+18,1.64257E+18,1.64257E+18,1.64257E+18,1.64257E+18,1.64257E+18,1.64257E+18,1.64257E+18,1.64257E+18,1.64257E+18,0
104,1.64257E+18,1.64257E+18,1.64257E+18,1.64257E+18,16.8,367.7135,42.55,-0.0288,-0.0085,0.1097,0.2152,-0.0383,-10.4195,21.1185,62.1403,44.4469,-0.0825,-0.0115,0.3387,-0.0294,-0.0086,0.1088,0,0,0,0,0,0,0,0,0,0,0,0,0,0,0,0,0,0,0,0,0,0,0,0,0,0,0,0,0,0,0,0,0,0,0,0,0,0,0,0,0,0,-0.05,0.0784,0,0,0.6829,0,0,0,0,0,0.0029,-0.0029,0.3387,0,0,0,0,0,0,0,0,0,0,0,0,0,0,0.0784,0,0,0,0,-0.05,0.0223,0.0223,0.145,0.145,1,3,1.64257E+18,1.64257E+18,1.64257E+18,1.64257E+18,1.64257E+18,1.64257E+18,1.64257E+18,1.64257E+18,1.64257E+18,1.64257E+18,0
105,1.64257E+18,1.64257E+18,1.64257E+18,1.64257E+18,16.8,367.7135,42.55,-0.032,-0.0096,0.1044,0.2104,0.012,-10.4457,21.1185,62.1403,44.4469,-0.0825,-0.0115,0.3392,-0.0302,-0.0089,0.1074,0,0,0,0,0,0,0,0,0,0,0,0,0,0,0,0,0,0,0,0,0,0,0,0,0,0,0,0,0,0,0,0,0,0,0,0,0,0,0,0,0,0,-0.05,0.0795,0,0,0.6834,0,0,0,0,0,0.0029,0,0.3392,0,0,0,0,0,0,0,0,0,0,0,0,0,0,0.0795,0,0,0,0,-0.05,0.0212,0.0212,0.1458,0.1458,1,3,1.64257E+18,1.64257E+18,1.64257E+18,1.64257E+18,1.64257E+18,1.64257E+18,1.64257E+18,1.64257E+18,1.64257E+18,1.64257E+18,0
106,1.64257E+18,1.64257E+18,1.64257E+18,1.64257E+18,16.8,367.7135,42.55,-0.0298,-0.0096,0.1033,0.2415,-0.0598,-10.4815,21.1185,62.1403,44.4469,-0.0826,-0.0114,0.3397,-0.0301,-0.0091,0.106,0,0,0,0,0,0,0,0,0,0,0,0,0,0,0,0,0,0,0,0,0,0,0,0,0,0,0,0,0,0,0,0,0,0,0,0,0,0,0,0,0,0,-0.05,0.0795,0,0,0.6839,0,0,0,0,0,0.0029,0,0.3397,0,0,0,0,0,0,0,0,0,0,0,0,0,0,0.0795,0,0,0,0,-0.05,0.0212,0.0212,0.1458,0.1458,1,3,1.64257E+18,1.64257E+18,1.64257E+18,1.64257E+18,1.64257E+18,1.64257E+18,1.64257E+18,1.64257E+18,1.64257E+18,1.64257E+18,0
107,1.64257E+18,1.64257E+18,1.64257E+18,1.64257E+18,16.8,367.7135,42.55,-0.032,-0.0075,0.1012,0.1913,-0.0359,-10.4338,20.2312,66.2355,44.9618,-0.0827,-0.0114,0.3402,-0.0307,-0.0086,0.1044,0,0,0,0,0,0,0,0,0,0,0,0,0,0,0,0,0,0,0,0,0,0,0,0,0,0,0,0,0,0,0,0,0,0,0,0,0,0,0,0,0,0,-0.05,0.0801,0,0,0.6845,0,0,0,0,0,0.0029,0,0.3402,0,0,0,0,0,0,0,0,0,0,0,0,0,0,0.0801,0,0,0,0,-0.05,0.0206,0.0206,0.1463,0.1463,1,3,1.64257E+18,1.64257E+18,1.64257E+18,1.64257E+18,1.64257E+18,1.64257E+18,1.64257E+18,1.64257E+18,1.64257E+18,1.64257E+18,0
108,1.64257E+18,1.64257E+18,1.64257E+18,1.64257E+18,16.8,367.7135,42.55,-0.032,-0.0107,0.1001,0.2296,-0.0096,-10.3837,20.2312,66.2355,44.9618,-0.0827,-0.0114,0.3407,-0.0311,-0.0093,0.103,0,0,0,0,0,0,0,0,0,0,0,0,0,0,0,0,0,0,0,0,0,0,0,0,0,0,0,0,0,0,0,0,0,0,0,0,0,0,0,0,0,0,-0.05,0.0804,0,0,0.685,0,0,0,0,0,0.0029,0,0.3407,0,0,0,0,0,0,0,0,0,0,0,0,0,0,0.0804,0,0,0,0,-0.05,0.0202,0.0202,0.1465,0.1465,1,3,1.64257E+18,1.64257E+18,1.64257E+18,1.64257E+18,1.64257E+18,1.64257E+18,1.64257E+18,1.64257E+18,1.64257E+18,1.64257E+18,0
109,1.64257E+18,1.64257E+18,1.64257E+18,1.64257E+18,16.8,367.7135,42.55,-0.0309,-0.0075,0.1001,0.2296,-0.055,-10.4171,20.2312,66.2355,44.9618,-0.0828,-0.0113,0.3412,-0.031,-0.0087,0.102,0,0,0,0,0,0,0,0,0,0,0,0,0,0,0,0,0,0,0,0,0,0,0,0,0,0,0,0,0,0,0,0,0,0,0,0,0,0,0,0,0,0,-0.05,0.0803,0,0,0.6855,0,0,0,0,0,0.0029,0,0.3412,0,0,0,0,0,0,0,0,0,0,0,0,0,0,0.0803,0,0,0,0,-0.05,0.0203,0.0203,0.1465,0.1465,1,3,1.64257E+18,1.64257E+18,1.64257E+18,1.64257E+18,1.64257E+18,1.64257E+18,1.64257E+18,1.64257E+18,1.64257E+18,1.64257E+18,0
110,1.64257E+18,1.64257E+18,1.64257E+18,1.64257E+18,16.8,367.728,42.55,-0.0277,-0.0107,0.0991,0.2367,-0.0335,-10.4457,20.2312,66.2355,44.9618,-0.0828,-0.0113,0.3417,-0.0299,-0.0093,0.101,0,0,0,0,0,0,0,0,0,0,0,0,0,0,0,0,0,0,0,0,0,0,0,0,0,0,0,0,0,0,0,0,0,0,0,0,0,0,0,0,0,0,-0.05,0.0794,0,0,0.6859,0,0,0,0,0,0.0029,0,0.3417,0,0,0,0,0,0,0,0,0,0,0,0,0,0,0.0794,0,0,0,0,-0.05,0.0213,0.0213,0.1458,0.1458,1,3,1.64257E+18,1.64257E+18,1.64257E+18,1.64257E+18,1.64257E+18,1.64257E+18,1.64257E+18,1.64257E+18,1.64257E+18,1.64257E+18,0
111,1.64257E+18,1.64257E+18,1.64257E+18,1.64257E+18,16.8,367.728,42.55,-0.0309,-0.0096,0.0991,0.2391,-0.0239,-10.4457,22.5383,65.3453,44.4469,-0.0829,-0.0113,0.3421,-0.0303,-0.0094,0.1004,0,0,0,0,0,0,0,0,0,0,0,0,0,0,0,0,0,0,0,0,0,0,0,0,0,0,0,0,0,0,0,0,0,0,0,0,0,0,0,0,0,0,-0.05,0.08,0,0,0.6864,0,0,0,0,0,0.0029,0,0.3421,0,0,0,0,0,0,0,0,0,0,0,0,0,0,0.08,0,0,0,0,-0.05,0.0207,0.0207,0.1462,0.1462,1,3,1.64257E+18,1.64257E+18,1.64257E+18,1.64257E+18,1.64257E+18,1.64257E+18,1.64257E+18,1.64257E+18,1.64257E+18,1.64257E+18,0
112,1.64257E+18,1.64257E+18,1.64257E+18,1.64257E+18,16.8,367.728,42.55,-0.0298,-0.0096,0.0959,0.208,-0.0359,-10.3885,22.5383,65.3453,44.4469,-0.0829,-0.0112,0.3426,-0.0301,-0.0095,0.0989,0,0,0,0,0,0,0,0,0,0,0,0,0,0,0,0,0,0,0,0,0,0,0,0,0,0,0,0,0,0,0,0,0,0,0,0,0,0,0,0,0,0,-0.05,0.08,0,0,0.6868,0,0,0,0,0,0.0029,0,0.3426,0,0,0,0,0,0,0,0,0,0,0,0,0,0,0.08,0,0,0,0,-0.05,0.0207,0.0207,0.1462,0.1462,1,3,1.64257E+18,1.64257E+18,1.64257E+18,1.64257E+18,1.64257E+18,1.64257E+18,1.64257E+18,1.64257E+18,1.64257E+18,1.64257E+18,0
113,1.64257E+18,1.64257E+18,1.64257E+18,1.64257E+18,16.8,367.728,42.55,-0.0298,-0.0075,0.098,0.2176,-0.0215,-10.3909,22.5383,65.3453,44.4469,-0.083,-0.0112,0.3431,-0.03,-0.0088,0.0986,0,0,0,0,0,0,0,0,0,0,0,0,0,0,0,0,0,0,0,0,0,0,0,0,0,0,0,0,0,0,0,0,0,0,0,0,0,0,0,0,0,0,-0.05,0.0801,0,0,0.6873,0,0,0,0,0,0.0029,0,0.3431,0,0,0,0,0,0,0,0,0,0,0,0,0,0,0.0801,0,0,0,0,-0.05,0.0206,0.0206,0.1463,0.1463,1,3,1.64257E+18,1.64257E+18,1.64257E+18,1.64257E+18,1.64257E+18,1.64257E+18,1.64257E+18,1.64257E+18,1.64257E+18,1.64257E+18,0
